station_name,start_count,start_member_count,start_casual_count,end_count,end_member_count,end_casual_count,avg_lat,avg_lng,type,public transportation
 S Scott St & 13th St S,429,244,185,428,243,185,38.86286049838345,-77.07716125084421,Work,Metro
10th & E St NW,43545,22148,21397,48325,25780,22545,38.89591883215938,-77.02605099118482,Work,Bus
10th & Florida Ave NW,25539,18675,6864,25383,18272,7111,38.92038527052559,-77.02566962503305,Living,Metro
10th & G St NW,31089,19004,12085,39366,24070,15296,38.89825473243357,-77.02623824381607,Entertainment,Bus
10th & H St NE,23583,15998,7585,24171,16142,8029,38.899980604777184,-76.99272371125818,Living,Bus
10th & K St NW,54363,31806,22557,54748,31611,23137,38.90241095511882,-77.02622502698395,Entertainment,
10th & Monroe St NE,16049,9535,6514,13067,8086,4981,38.93247189322038,-76.99332485351812,Work,Metro
10th & Quincy St NE / Turkey Thicket Rec,5601,3570,2031,5474,3469,2005,38.937841371339104,-76.99351239997941,Work,Metro
10th & Rhode Island Ave NE,1,0,1,1,1,0,38.92250276563467,-76.99270573214467,Living,Metro
10th & U St NW,37554,25454,12100,37588,24753,12835,38.91720185388705,-77.02590276601234,Entertainment,Bus
10th St & Constitution Ave NW,47491,16104,31387,51596,18040,33556,38.89302612557974,-77.02601255538718,Entertainment,Bus
10th St & Florida Ave NW,32264,23931,8333,30976,22271,8705,38.920389754795586,-77.0256701699991,Living,
10th St & L'Enfant Plaza SW,30222,7785,22437,28748,9866,18882,38.884330736344005,-77.02599943449489,Living,
10th St & Rhode Island Ave NE,3937,2465,1472,3601,1891,1710,38.9224856584886,-76.99271565216026,Work,Bus
10th St & Spring Rd NW,8185,5629,2556,6181,4251,1930,38.93620038293032,-77.02715830743571,Entertainment,Metro
11th & C St SE,27846,20456,7390,27553,20556,6997,38.88591283964537,-76.99148306581469,Living,Metro
11th & Clifton St NW,21477,16074,5403,16171,12537,3634,38.92225120072626,-77.02710070448248,Living,Metro
11th & F St NW,25311,15004,10307,30428,17817,12611,38.89784257988248,-77.02699564213434,Living,Metro
11th & Girard St NW,56054,39150,16904,47968,35407,12561,38.92559676694934,-77.02711288644167,Entertainment,Metro
11th & H St NE,9212,6179,3033,9437,6113,3324,38.89997885340733,-76.99139033778627,Work,Metro
11th & Kenyon St NW,68702,43842,24860,46835,32091,14744,38.929464179753076,-77.02782345313996,Living,
11th & M St NW,99763,70164,29599,97127,70036,27091,38.905584451390546,-77.02730699901576,Living,Bus
11th & O St NW,61932,42917,19015,56157,39037,17120,38.90841077110336,-77.02710796528686,Work,Metro
11th & Park Rd NW,47462,30874,16588,39278,26749,12529,38.93133938772111,-77.02824465701079,Living,Metro
11th & S St NW,55939,37908,18031,53992,37448,16544,38.913679432433,-77.0270711629315,Living,
11th & V St NW,21506,15231,6275,20855,14898,5957,38.918197182474216,-77.0271399083819,Entertainment,Metro
11th & V st NW,8763,6385,2378,7308,5334,1974,38.91819583533523,-77.0271493091237,Work,
12th & Irving St NE,10754,6676,4078,10095,6243,3852,38.92864051216976,-76.9909599090082,Living,Bus
12th & L St NW,51583,36803,14780,50244,35714,14530,38.90381310407459,-77.028407369792,Living,Bus
12th & Newton St NE,6765,4161,2604,6336,4024,2312,38.93368575024426,-76.99104024301407,Living,Bus
12th & U St NW,36311,24505,11806,33639,22936,10703,38.9167866409228,-77.02813386131417,Entertainment,
12th & Varnum St NE,1403,815,588,1283,776,507,38.94356732609514,-76.99015342834352,Work,
12th St & New York Ave NW,15849,9741,6108,17567,10616,6951,38.90111174289589,-77.0280595616548,Living,
12th St & Pennsylvania Ave SE,25876,18653,7223,25415,18310,7105,38.88249720614212,-76.99012524068382,Work,Metro
12th St N & N Pierce St,1765,979,786,1668,878,790,38.88765980949934,-77.0759125806255,Living,Bus
1301 McCormick Dr / Wayne K. Curry Admin Bldg,404,69,335,395,64,331,38.90836805775619,-76.84354024376236,Work,Metro
13th & D St NE,37726,27952,9774,35951,26851,9100,38.894833597941755,-76.98763873551825,Work,Metro
13th & E St SE,16152,11369,4783,15549,11363,4186,38.88291812816267,-76.98790667644877,Living,Metro
13th & H St NE,50646,33811,16835,52264,34383,17881,38.90043809416636,-76.98825632262142,Entertainment,Bus
13th & O St NW/ Logan Circle,25356,17758,7598,24266,17594,6672,38.90874792415754,-77.029775190229,Entertainment,
13th & U St NW,55808,37397,18411,55310,36207,19103,38.916915971581574,-77.02963505299728,Entertainment,Bus
13th St & Eastern Ave,3228,2113,1115,2705,1723,982,38.98696913196865,-77.02941114529308,Work,Bus
13th St & New York Ave NW,32667,20256,12411,36984,23201,13783,38.9002854158343,-77.0298354197342,Living,
14th & Belmont St NW,70399,48764,21635,67041,46648,20393,38.92106713796939,-77.03187067050897,Entertainment,Metro
14th & D St NW / John A Wilson Building,11022,6217,4805,12295,6737,5558,38.89451940947406,-77.03161818096339,Entertainment,Bus
14th & D St NW / Ronald Reagan Building,21549,10260,11289,26083,11766,14317,38.894515487606114,-77.03161791245462,Work,
14th & D St SE,34673,26209,8464,34352,25589,8763,38.88406045869961,-76.98635563534974,Entertainment,
14th & G St NW,34708,19360,15348,40058,21117,18941,38.89823565440406,-77.03202307512703,Work,Metro
14th & Girard St NW,34622,25470,9152,26552,21160,5392,38.92529548875227,-77.0323619519647,Entertainment,
14th & Harvard St NW,24363,17735,6628,17296,12667,4629,38.926786200133876,-77.03219938395618,Entertainment,
14th & Irving St NW,91681,65347,26334,74469,53797,20672,38.928573869108504,-77.03222919471102,Entertainment,
14th & L St NW,45197,29831,15366,46193,30408,15785,38.90366490959527,-77.03173669506799,Work,
14th & Luzon St NW,3116,1795,1321,2979,1657,1322,38.9694853514347,-77.03349676542786,Work,
14th & Newton St NW,43951,29112,14839,34047,23581,10466,38.931997290741705,-77.03296444596342,Living,
14th & Otis Pl NW,50588,33833,16755,34184,23015,11169,38.934378949679854,-77.03268212164579,Living,Metro
14th & Q St NW,59388,39877,19511,61111,40070,21041,38.91069452860219,-77.03188106152291,Work,Metro
14th & Quincy St NW,4795,3276,1519,4852,3246,1606,38.938017907418356,-77.03265912909913,Living,Metro
14th & R St NW,100460,66235,34225,102829,66633,36196,38.91304002320869,-77.03199449585935,Living,Metro
14th & Rhode Island Ave NW,56271,38293,17978,56718,38507,18211,38.90859773513466,-77.03230435705093,Entertainment,Bus
14th & Upshur St NW,14176,9600,4576,12348,8156,4192,38.94247237937485,-77.03267127035267,Work,
14th & V St NW,117203,81112,36091,117435,80387,37048,38.91778002186694,-77.03208227124061,Entertainment,Bus
14th St & Colorado Ave NW,15850,9761,6089,13011,7999,5012,38.95642440163962,-77.03294973055532,Living,Metro
14th St & Luzon Ave NW,3699,2704,995,3390,2230,1160,38.96947711526931,-77.0335009858751,Living,Bus
14th St & Marion Barry Ave SE,757,583,174,764,537,227,38.86661068347446,-76.98522084551739,Work,
14th St & New York Ave NW,26589,14479,12110,32602,18168,14434,38.89963077334069,-77.0316842078913,Work,Metro
14th St & Rhode Island Ave NW,37425,24213,13212,36835,23902,12933,38.90860076481714,-77.03230125164629,Living,Bus
14th St & Spring Rd NW,39292,25913,13379,34983,24136,10847,38.93748966169278,-77.03280924206788,Living,Bus
14th St Heights / 14th & Crittenden St NW,7483,4698,2785,6682,4363,2319,38.94774001222335,-77.0328329569318,Work,Bus
15th & East Capitol St NE,26912,19879,7033,25947,18878,7069,38.889910229956115,-76.98334407315167,Work,Metro
15th & Euclid St  NW,16585,11830,4755,10698,7563,3135,38.92334079028218,-77.03518609972089,Work,
15th & Euclid St NW,40517,27837,12680,35271,24719,10552,38.92334526846844,-77.0351776550215,Living,
15th & F St NE,23744,17653,6091,24063,18193,5870,38.89718711828401,-76.98357947311203,Living,Metro
15th & Harvard St NW,4717,3347,1370,3711,2708,1003,38.92612033589319,-77.0354353127874,Entertainment,
15th & K St NW,29614,18585,11029,32907,20518,12389,38.90200567456943,-77.03353991840763,Work,Bus
15th & L St NW,38924,24719,14205,40923,26581,14342,38.90366702121378,-77.0349166866445,Living,Bus
15th & M St NW,50906,33212,17694,49530,33408,16122,38.90542125665263,-77.0346570984472,Living,
15th & P St NW,140833,103594,37239,143402,106064,37338,38.909813095174606,-77.03442694338226,Work,Bus
15th & W St NW,96425,64663,31762,96947,66403,30544,38.91902179247996,-77.03445699510982,Work,Metro
15th St & Constitution Ave NW,72157,16616,55541,77291,17923,59368,38.89224632266884,-77.03323151165186,Work,
15th St & Massachusetts Ave SE,27826,21242,6584,27468,21208,6260,38.887319310618224,-76.98357171084278,Entertainment,Bus
15th St & N Scott St,12150,6974,5176,10846,6546,4300,38.8905404440128,-77.08094186800352,Living,Metro
15th St & New York Ave NW,13994,7441,6553,15270,7324,7946,38.89902904441488,-77.03335109118288,Entertainment,
15th St & Pennsylvania Ave NW,53425,14531,38894,58975,16607,42368,38.896463083539956,-77.03337790743491,Living,Metro
16th & Bangor St SE,463,117,346,421,104,317,38.86048689150108,-76.98357549789094,Work,Bus
16th & Harvard St NW,47474,31159,16315,31961,22115,9846,38.92610105340544,-77.03662937475896,Living,Metro
16th & Irving St NW,43387,30593,12794,34940,25244,9696,38.92888111912925,-77.03624424234782,Living,Bus
16th & K St NW/BLM Plaza,3669,1870,1799,4309,2280,2029,38.902694805954894,-77.03589998388158,Entertainment,Bus
16th & Q St SE / Anacostia HS,2171,981,1190,2158,964,1194,38.87069362704344,-76.98236090321792,Entertainment,
16th & R St NW,49446,35693,13753,48680,35960,12720,38.91265270464045,-77.03627605349898,Living,Metro
16th St & North Carolina Ave NE,1949,1427,522,1936,1331,605,38.89306727662691,-76.9824860939858,Living,
17th & Corcoran St NW,93189,71097,22092,93748,71919,21829,38.91209837994323,-77.03868806212817,Living,Bus
17th & G St NW,52736,25400,27336,55000,27823,27177,38.89830112294409,-77.03969404501916,Work,
17th & K St NW,59770,40967,18803,65235,45138,20097,38.902758980769875,-77.03861992983869,Work,
17th & K St NW / Farragut Square,47851,30389,17462,52615,33142,19473,38.902071381798685,-77.03833499048794,Work,
17th & P St NW,61975,45355,16620,60197,44452,15745,38.9098588889957,-77.03855224638936,Work,Metro
17th & Upshur St NW,8276,4497,3779,6674,3781,2893,38.94215406142334,-77.03866390761962,Entertainment,
17th St & Independence Ave SW,70875,14465,56410,69341,15642,53699,38.88809839211396,-77.03832596204113,Work,Metro
17th St & Massachusetts Ave NW,59102,43737,15365,58283,44236,14047,38.90814638849876,-77.03836685901454,Entertainment,
17th St & New York Ave NW,9363,4261,5102,9455,4032,5423,38.89660993918417,-77.03977773537196,Work,Metro
17th St & Potomac Ave SE / Congressional Cemetery ,638,407,231,642,415,227,38.88244820389865,-76.98068877393966,Entertainment,Metro
17th St & Rhode Island Ave NW,20465,14092,6373,20470,14170,6300,38.906765178093025,-77.03861748563375,Living,
18th & C St NW,17574,6345,11229,18761,7371,11390,38.89351593294863,-77.04154892790213,Entertainment,Metro
18th & L St NW,40222,26040,14182,44156,29387,14769,38.903735824875355,-77.04244682449368,Entertainment,Bus
18th & M St NW,50879,33650,17229,57702,39481,18221,38.90506440560186,-77.04176597823421,Work,
18th & Monroe St NE,3634,2163,1471,4401,2601,1800,38.93291616349261,-76.97952621451259,Work,Metro
18th & New Hampshire Ave NW,76626,54628,21998,75430,53577,21853,38.91126940815404,-77.04182845628108,Living,Bus
18th & R St NW,64279,45841,18438,64865,46836,18029,38.912647690147,-77.04183593484773,Entertainment,Bus
18th & Upshur St NE,376,109,267,380,96,284,38.94168848121631,-76.98041665770346,Work,
18th St & Ingleside Ter NW,3125,2177,948,2683,1860,823,38.934760617317586,-77.04134886161117,Living,
18th St & Ingleside Terr NW,2,2,0,4,4,0,38.934784,-77.041362,Work,Bus
18th St & Pennsylvania Ave NW,35683,22452,13231,37897,24441,13456,38.899675833186656,-77.04154434004192,Work,Metro
18th St & Rhode Island Ave NE,4391,2539,1852,4091,2357,1734,38.9270801583431,-76.97894459771317,Work,
18th St & S Eads St,2272,978,1294,2257,1054,1203,38.857251274926135,-77.05336090588696,Entertainment,Metro
18th St & Wyoming Ave NW,83884,54004,29880,74959,49230,25729,38.91880554532274,-77.04156802987038,Entertainment,Metro
19th & E Street NW,6725,3453,3272,7385,4075,3310,38.89527443812774,-77.0435726895298,Entertainment,Metro
19th & East Capitol St SE,16778,11652,5126,16822,11625,5197,38.88960306881333,-76.9769011460726,Living,Metro
19th & G St NW,26760,20293,6467,27618,21502,6116,38.89840595840748,-77.0431895680662,Entertainment,Metro
19th & I St NW,13556,9795,3761,14476,10610,3866,38.9016272714716,-77.0433966379944,Work,Metro
19th & K St NW,13307,8473,4834,15691,10727,4964,38.90219845085921,-77.04338153971312,Living,Metro
19th & Savannah St SE,364,93,271,343,111,232,38.84623292345196,-76.9770271117103,Living,
19th St & Constitution Ave NW,29893,6192,23701,30705,7971,22734,38.892264160672866,-77.0433536584772,Living,Bus
19th St & Pennsylvania Ave NW,21463,14957,6506,21958,15224,6734,38.900291712786625,-77.04290268115159,Living,
19th St N & Ft Myer Dr,9401,6382,3019,10797,6872,3925,38.89720960229819,-77.0721152088346,Living,
1st & D St SE,41712,24439,17273,42293,26109,16184,38.88491888143787,-77.00597071105781,Entertainment,Metro
1st & H St NW,38050,26807,11243,39029,27376,11653,38.900362252687586,-77.01212319542546,Work,
1st & I St SE,56676,34490,22186,58345,35048,23297,38.8788567108312,-77.00574877668191,Entertainment,Bus
1st & K NE,14,9,5,15,11,4,38.902386,-77.005649,Work,Bus
1st & K St NE,65617,44746,20871,66649,45387,21262,38.90239353252261,-77.00565564063184,Living,Metro
1st & K St SE,33263,19999,13264,34890,20758,14132,38.87885501116103,-77.00575789802836,Living,Bus
1st & L St NW,12418,8813,3605,12515,8938,3577,38.90383195457321,-77.01196935408012,Living,Bus
1st & M St NE,130461,84976,45485,132542,87148,45394,38.90568876801754,-77.00549561633329,Entertainment,
1st & M St SE,48125,29484,18641,54999,33072,21927,38.876926696301574,-77.00604219010341,Entertainment,Metro
1st & N St  SE,9979,5121,4858,12056,6022,6034,38.87429429481951,-77.00570321016471,Entertainment,
1st & N St SE,33193,18156,15037,37270,20050,17220,38.87473950679903,-77.00575593879502,Work,Bus
1st & O St NW,39712,28938,10774,37974,27687,10287,38.90864438137336,-77.01236744367382,Work,Bus
1st & Q St SW,7967,5111,2856,8444,5360,3084,38.8708222167274,-77.01193239894978,Living,
1st & Rhode Island Ave NW,62967,42322,20645,62255,41620,20635,38.91541177232453,-77.01228461893449,Entertainment,Bus
1st & S Capitol St SE / Oxon Run Trail,2665,1284,1381,2912,1341,1571,38.82447832987725,-77.0054904344367,Living,Bus
1st & Washington Hospital Center NW,20628,13436,7192,15990,11249,4741,38.928747893670504,-77.01243794348315,Living,Metro
1st St & Potomac Ave SE,29057,16007,13050,29650,16117,13533,38.87184430048144,-77.00591555151001,Living,Metro
20th & Columbia Rd NW,41047,28117,12930,32647,23073,9574,38.91805405002897,-77.04547064091565,Entertainment,
20th & E St NW,30975,20022,10953,32397,21043,11354,38.89629890653684,-77.04499858206913,Entertainment,Bus
20th & L St NW,40853,28739,12114,46087,32595,13492,38.90357296531758,-77.04480973459836,Living,Bus
20th & O St NW / Dupont South,65319,45435,19884,67649,46483,21166,38.908899344379584,-77.04479410096008,Entertainment,Bus
20th St & Florida Ave NW,56224,38123,18101,55770,38539,17231,38.91540303159759,-77.04459761477091,Entertainment,
20th St & Virginia Ave NW,11222,6738,4484,12623,8162,4461,38.89472644059834,-77.04512711514226,Entertainment,Metro
21st & E St NW,9758,6204,3554,10059,6485,3574,38.89613390680491,-77.04661706777766,Entertainment,Bus
21st & I St NW,56609,40101,16508,61424,45257,16167,38.900717474413426,-77.04643634881859,Living,Bus
21st & M St NW,211,149,62,240,167,73,38.90534,-77.046774,Entertainment,
21st NW & E St NW,2,2,0,1,0,1,38.8961140441491,-77.04661488533019,Entertainment,Metro
21st St & Constitution Ave NW,10850,2633,8217,10693,3809,6884,38.8924584799774,-77.04656675224534,Work,Metro
21st St & G st NW,46656,31666,14990,47142,32255,14887,38.89830698010317,-77.04689620728996,Entertainment,Bus
21st St & N Pierce St,8914,6331,2583,7074,5050,2024,38.89898460137974,-77.0783091351858,Work,Bus
21st St & Pennsylvania Ave NW,26843,18543,8300,30184,21069,9115,38.901542274576585,-77.04657569872884,Work,Metro
22nd & H St NW,33811,24039,9772,35027,25029,9998,38.898938968310674,-77.04884451931161,Entertainment,
22nd & I St NW / Foggy Bottom,62200,44729,17471,63801,44581,19220,38.9008972548466,-77.0488937392966,Entertainment,
22nd & P ST NW,60744,41066,19678,62216,42899,19317,38.90939038902578,-77.04872624098311,Living,Metro
22nd St & Constitution Ave NW,27153,9446,17707,26166,10419,15747,38.892442268297636,-77.04894437203109,Entertainment,Metro
23rd & E St NW ,33651,23175,10476,33414,22727,10687,38.896107859166754,-77.04986325098236,Entertainment,
23rd & M St NW,76204,50517,25687,86050,57964,28086,38.9053056120256,-77.05025609532224,Living,
23rd St S & Hayes St,5829,4067,1762,5713,3942,1771,38.85299959734172,-77.05949662248958,Work,Metro
24th & N St NW,33622,23951,9671,35227,24958,10269,38.90659922158498,-77.05149454774028,Living,Metro
24th & R St NE / National Arboretum,15133,5895,9238,15024,6044,8980,38.91263020094623,-76.97193817794965,Work,Metro
24th St & Rhode Island Ave NE,755,445,310,762,432,330,38.93078563315633,-76.97285606291902,Work,Metro
25th & S St SE ,142,100,42,152,110,42,38.86824152794249,-76.97205135331338,Entertainment,
25th St & Pennsylvania Ave NW,64719,44784,19935,66980,46543,20437,38.90382941652133,-77.05347820640822,Work,Bus
28th St & S Meade St,6432,3357,3075,6992,3579,3413,38.846235373329804,-77.06927834149866,Work,
2nd & G St NE,49950,35100,14850,51901,36755,15146,38.89966900154689,-77.00364418619942,Work,Metro
2nd & V St SW / James Creek Marina,15030,7545,7485,15885,7756,8129,38.863746428341585,-77.0138125397902,Entertainment,Bus
2nd St & Massachusetts Ave NE,55345,36090,19255,55128,34964,20164,38.894974071174104,-77.00313941022523,Work,Metro
2nd St & Seaton Pl NE,22014,15203,6811,20786,14475,6311,38.914741561123066,-77.00356370221525,Work,Bus
3000 Connecticut Ave NW / National Zoo,23375,15452,7923,20204,12960,7244,38.93029078227557,-77.05559205271081,Work,Metro
31st & Water St NW,4452,1319,3133,6119,2056,4063,38.90279961825078,-77.06105486749156,Living,Bus
31st St & S Woodrow St,1654,806,848,1238,603,635,38.837832204342085,-77.09366880714165,Entertainment,Bus
33rd St & Wisconsin Ave NW,3019,1822,1197,3214,1743,1471,38.91219294198031,-77.06606013512419,Entertainment,Metro
34th & Water St NW,38845,17131,21714,49783,21313,28470,38.903723931284524,-77.06753534218197,Work,
34th St & Minnesota Ave SE,179,120,59,166,99,67,38.883842148462755,-76.95751439624767,Living,
34th St & Wisconsin Ave NW,29987,19711,10276,29422,19037,10385,38.9164556630568,-77.06820265373003,Entertainment,Bus
36th & Calvert St NW / Glover Park,15477,8657,6820,11031,6023,5008,38.92258815863337,-77.07031543007459,Work,Metro
37th & Ely Pl SE,452,190,262,433,173,260,38.883025023439885,-76.94975680991715,Living,Metro
37th & O St NW / Georgetown University,67901,44081,23820,67821,43190,24631,38.907793077741246,-77.0716307337851,Work,Bus
39th & Calvert St NW / Stoddert,26026,16174,9852,19323,12640,6683,38.922643249777046,-77.07723720650051,Entertainment,Bus
39th & Veazey St NW,12296,8644,3652,8604,6073,2531,38.943829805680004,-77.07706037531312,Living,
39th St & Tunlaw Rd NW,2594,1573,1021,2504,1573,931,38.925676608636465,-77.07909291195566,Entertainment,Bus
3rd & D St SE,34373,23856,10517,34134,23490,10644,38.88510708107967,-77.0022958712466,Work,Bus
3rd & Elm St NW,48826,34936,13890,47544,34304,13240,38.91762255541909,-77.01597194933254,Work,Metro
3rd & G St SE,44983,33845,11138,44894,33175,11719,38.881187204035314,-77.00182670133285,Living,Metro
3rd & H St NE,66623,44090,22533,67897,45289,22608,38.900416600134136,-77.00196978938081,Entertainment,Metro
3rd & H St NW,44193,30467,13726,44583,31233,13350,38.899411491578974,-77.01527164552718,Entertainment,
3rd & M St NE,55269,36680,18589,58761,38336,20425,38.905470867389226,-77.00213448899083,Living,
3rd & M St SE,13747,11299,2448,17172,13800,3372,38.876829665435906,-77.00213519942858,Work,
3rd & M st SE,5186,3795,1391,7676,5104,2572,38.87682791717879,-77.00214397938655,Living,
3rd & N St NE,17250,11220,6030,17543,11691,5852,38.90707013282412,-77.00209846516145,Work,Metro
3rd & Tingey St SE,35988,21110,14878,41049,23283,17766,38.87500778931453,-77.00241163813565,Work,Bus
3rd & Underwood St NW,6188,4095,2093,5736,3851,1885,38.969014389766656,-77.01631313491411,Living,Metro
3rd St & Pennsylvania Ave SE,50890,28748,22142,49826,26471,23355,38.88737633420901,-77.00195809568763,Living,
3rd St & Riggs Rd NE,6411,3615,2796,6650,3710,2940,38.95744285845922,-77.00225677512711,Work,
41st St & Alabama Ave SE / Fort Davis Rec,158,82,76,129,66,63,38.87033708566034,-76.94527596922995,Work,
44th St & New Mexico Ave NW,1429,874,555,1329,815,514,38.9338960648808,-77.0862461628891,Work,
47th & Elm St,3396,1349,2047,2386,1049,1337,38.982442414583204,-77.09197980709158,Work,Bus
48th Pl & MacArthur Blvd NW,7134,3842,3292,7008,3759,3249,38.916981964101765,-77.09574459409399,Work,Bus
4th & C St SW,56778,24764,32014,61908,26036,35872,38.88637690180896,-77.01769238159554,Work,Metro
4th & College St NW,4441,2861,1580,4357,2741,1616,38.921224416150515,-77.01814824493712,Entertainment,Metro
4th & D St NW / Judiciary Square,17418,12186,5232,17726,12970,4756,38.895367575976934,-77.01610621604843,Living,
4th & E St SW,38560,20121,18439,40708,21088,19620,38.884113865390034,-77.01745591896831,Entertainment,Metro
4th & East Capitol St NE,45496,29184,16312,44964,27427,17537,38.88995656787269,-77.00035232972962,Living,
4th & Florida Ave NE,64068,40789,23279,64509,40980,23529,38.90731185336391,-77.00072335677895,Entertainment,
4th & G St SW,31475,21522,9953,32195,21540,10655,38.88111981959695,-77.01770166969432,Work,
4th & M St SE,38641,27717,10924,44931,30558,14373,38.8767539626908,-77.00072631711848,Work,
4th & M St SW,88123,58074,30049,91784,59839,31945,38.87675318118367,-77.01784469040437,Living,Metro
4th & O St SW,10805,8189,2616,10896,8314,2582,38.87297680782619,-77.01758388791964,Living,Metro
4th & W St NE,22306,14315,7991,21925,13992,7933,38.91906714673334,-77.0006519357466,Work,Metro
4th St & G St SW,15882,10453,5429,16728,11160,5568,38.88112207300453,-77.01765724673578,Entertainment,
4th St & K St NW,24571,16219,8352,24104,16051,8053,38.90240187150443,-77.01600018845794,Work,Bus
4th St & Madison Dr NW,120612,32019,88593,118804,37518,81286,38.890497588335194,-77.01724900246114,Work,
4th St & Mississippi Ave SE,1917,756,1161,1989,785,1204,38.835995527136305,-77.0009015351804,Work,
53rd & D St SE/C.W. Harris Elementary,858,257,601,609,150,459,38.88333673891666,-76.92530841666569,Living,Metro
55th & East Capitol St NE,66,45,21,65,54,11,38.88992745780051,-76.92277019377525,Entertainment,Bus
5th & F St NW,38110,24504,13606,40935,26556,14379,38.89723028542212,-77.01933882760177,Entertainment,
5th & K St NW,114324,82243,32081,115959,82720,33239,38.90304522842583,-77.01902975366932,Work,Bus
5th & Kennedy St NW,8929,5337,3592,8535,4787,3748,38.95655444496692,-77.0198338250268,Work,Metro
5th & Morse St NE,21558,13725,7833,22037,13887,8150,38.90728241987867,-76.99917142429888,Entertainment,Metro
5th St & Massachusetts Ave NW,74826,49342,25484,75855,48807,27048,38.90093038440331,-77.01867980784104,Work,Bus
6035 Warehouse,644,537,107,1655,754,901,38.9622851271089,-77.0106526305217,Entertainment,Bus
61st St & Banks Pl NE,1038,408,630,1019,363,656,38.891807478582194,-76.91357011208164,Living,Metro
6th & H St NE,86804,60747,26057,91162,62539,28623,38.89997390271782,-76.99835901585939,Entertainment,
6th & K St NE,32712,22887,9825,33191,23787,9404,38.90294651028752,-76.99840775491278,Entertainment,Bus
6th St & Indiana Ave NW,42299,26647,15652,44210,27022,17188,38.89457854511048,-77.01994386562377,Living,Bus
7th & E St SW,18829,10222,8607,19890,10586,9304,38.883455347465535,-77.02173717693569,Living,Metro
7th & F St NW / National Portrait Gallery,73104,42387,30717,77935,46367,31568,38.89729377631511,-77.02219969390272,Entertainment,Metro
7th & K St NE,3108,2157,951,3136,2200,936,38.90255928026311,-76.99573905992344,Entertainment,Metro
7th & K St NW,70474,45213,25261,74147,46477,27670,38.902668470885004,-77.02139788369101,Entertainment,Bus
7th & Monroe St NE,10853,6376,4477,10129,6127,4002,38.93223222073883,-76.99615102865934,Living,Bus
7th & R St NW / Shaw Library,48778,33059,15719,47729,32189,15540,38.9127192182845,-77.02219435718018,Entertainment,Bus
7th & S St NW,46907,33087,13820,43777,30520,13257,38.91417893739661,-77.02175386732642,Work,Metro
7th & T St NW,31132,20807,10325,31976,21102,10874,38.9155356949639,-77.02214081624112,Work,
7th St & Florida Ave NW,19916,13607,6309,19792,13137,6655,38.91613911571835,-77.02201737601828,Work,Bus
7th St & Massachusetts Ave NE,27853,19016,8837,24172,17873,6299,38.89222012273275,-76.99601712900409,Work,Bus
8th & D St NW,35000,19834,15166,40734,22340,18394,38.89484675798796,-77.02324156648702,Entertainment,
8th & East Capitol St NE,25745,17350,8395,25087,16838,8249,38.88998674630568,-76.99519607367594,Work,
8th & Eye St SE / Barracks Row,24238,15289,8949,24818,15585,9233,38.87920329830674,-76.99529745296869,Living,Metro
8th & F St NE,41156,31015,10141,40798,30724,10074,38.897273357001296,-76.99475094021645,Living,Bus
8th & H St NE,33198,23066,10132,35024,23313,11711,38.899928400925425,-76.9948962104111,Entertainment,
8th & H St NW,73765,44876,28889,81938,49073,32865,38.89970213214581,-77.02308365745846,Work,Bus
8th & K St NE,22344,15082,7262,22412,15488,6924,38.9027271207884,-76.99515209994622,Entertainment,Metro
8th & O St NW,101358,70342,31016,101102,69322,31780,38.90863939610236,-77.02277616949078,Work,Bus
8th & V St NW,41471,28022,13449,40881,27353,13528,38.917733991494906,-77.02268523610977,Entertainment,Bus
8th Rd & S Frederick St,1659,1420,239,1509,1264,245,38.85704804067683,-77.1163426574517,Entertainment,Metro
9th & G St NW,20376,12389,7987,22235,13879,8356,38.8981066506308,-77.02393290232109,Entertainment,
9th & Ingraham St NW,5755,3973,1782,5196,3506,1690,38.953687714117954,-77.02560628386189,Living,Bus
9th & N St NW ,8651,5672,2979,8180,5214,2966,38.9066354787298,-77.02389265359224,Entertainment,Bus
9th & Upshur St NW,26048,16979,9069,24434,16229,8205,38.94177398724477,-77.02510212387875,Work,Metro
9th St & Pennsylvania Ave NW,18950,9346,9604,24284,12184,12100,38.89427568315904,-77.02398002138193,Work,
Adams Mill & Columbia Rd NW,87878,58244,29634,77151,50238,26913,38.922891405737325,-77.04253392854277,Work,
Alabama & MLK Ave SE,1977,1036,941,1707,827,880,38.84322894535636,-76.99937885356422,Work,Metro
Alabama Ave & Stanton Rd SE / Shops at Park Village,1630,776,854,1314,679,635,38.84627340202805,-76.98185220205846,Living,
American University East Campus,13876,7551,6325,9193,4916,4277,38.93629491794533,-77.08712117081495,Work,Metro
Amherst Ave & Elkins St,1218,327,891,1235,312,923,39.04488596723292,-77.04778785659457,Living,Metro
Amherst Ave & Prichard Rd,896,200,696,788,156,632,39.03596109645287,-77.04839374899663,Work,Bus
Anacostia Ave & Benning Rd NE / River Terrace ,9139,5333,3806,9129,5286,3843,38.89654322573887,-76.96011946720807,Work,Metro
Anacostia Ave & East Capitol St NE,1908,1061,847,1919,1146,773,38.890452654506376,-76.96128262395432,Entertainment,
Anacostia Library,2290,1484,806,2259,1485,774,38.8658276762562,-76.97843758922923,Living,Metro
Anacostia Metro,5405,3331,2074,5488,3032,2456,38.862644555260914,-76.99462318480411,Work,Bus
Anacostia Park,11296,4709,6587,10949,4482,6467,38.87335712947592,-76.98336357842533,Entertainment,
Anacostia Roller Skating Pavilion,3813,1819,1994,3831,1870,1961,38.87877048086981,-76.97094189295794,Entertainment,Bus
Anacostia Roller Skating Pavillion,3821,1512,2309,3913,1811,2102,38.87876936011361,-76.97093047619394,Living,Metro
Arizona & McArthur NW,23,9,14,28,16,12,38.92728985429607,-77.1036594990942,Living,Metro
Arizona Ave & MacArthur Blvd NW,3102,1466,1636,3229,1478,1751,38.92729240696355,-77.10363008464293,Entertainment,
Arlington Blvd & Allen St,373,138,235,402,133,269,38.8663383957942,-77.19978028048419,Living,Metro
Arlington Blvd & Fairfax Dr,7549,4601,2948,7320,4329,2991,38.88626654041343,-77.08425366140666,Entertainment,Bus
Arlington Blvd & Fillmore St,5635,3865,1770,5644,3817,1827,38.873761605311586,-77.08922853510575,Work,Metro
Arlington Blvd & Ft Myer Dr,10046,5721,4325,10160,5835,4325,38.89086218345555,-77.07488732519606,Work,Metro
Arlington Blvd & N Queen St,5275,3019,2256,5141,2936,2205,38.889363115863276,-77.07729558651792,Living,Metro
Arlington Blvd & S George Mason Dr,4529,2853,1676,4418,3002,1416,38.86944245818885,-77.10449868114523,Living,
Arlington Mill Cmty Center / Columbia Pike & S Dinwiddie St,8181,5421,2760,8292,5162,3130,38.85635273645458,-77.11154922881856,Living,Metro
Arlington National Cemetery,16161,2523,13638,16228,2770,13458,38.88453582620633,-77.0657995521527,Work,
Army Navy Dr & Fern St,2070,1129,941,2388,1180,1208,38.864842893193554,-77.05686910776835,Living,Bus
Army Navy Dr & S Joyce St,11281,6436,4845,11797,6932,4865,38.86344432385634,-77.06337413147179,Entertainment,Bus
Army Navy Dr & S Nash St,2145,1328,817,1656,1066,590,38.86218969573376,-77.06813021337274,Living,
Aurora Hills Cmty Ctr / 18th St & S Hayes St,7440,4574,2866,7462,4830,2632,38.857867324735096,-77.0594898099494,Entertainment,Metro
Ballenger Ave & Dulaney St,5160,3320,1840,4994,3180,1814,38.8026816770418,-77.06356889425639,Living,
Ballston Metro / Stuart St & 9th St N,23121,14644,8477,20186,13165,7021,38.88104731132677,-77.11176077412605,Living,
Baltimore Ave & Jefferson St,4206,1072,3134,4474,1185,3289,38.955485945750894,-76.9401331843078,Work,Metro
Baltimore Ave & Van Buren St / Riverdale Park Station,4764,1375,3389,4778,1445,3333,38.969574570059336,-76.93736062057123,Living,Metro
Barcroft Community Center,4304,1966,2338,4560,2046,2514,38.850338103017066,-77.10098891192033,Entertainment,Metro
Baron Cameron Ave & North Hampton Ave,918,295,623,963,291,672,38.966356268328866,-77.35932157109472,Work,Metro
Barton St & 10th St N,4883,2797,2086,4016,2413,1603,38.88498461404838,-77.08777779412605,Work,Metro
Battery Ln & Trolley Trail,7408,3691,3717,6707,3510,3197,38.99237373841163,-77.10010183675476,Living,
Becontree Ln & Goldenrain Ct,397,51,346,398,48,350,38.96683768824417,-77.32928744750507,Living,Metro
Beech Dr at Draper Dr Park,90,34,56,81,38,43,38.866668919190744,-77.28210696004814,Work,Bus
Benning Branch Library,1427,961,466,1449,838,611,38.89399544051099,-76.94797009905248,Living,
Benning Rd & East Capitol St NE / Benning Rd Metro,3567,1604,1963,3601,1468,2133,38.88994477077379,-76.93723767426727,Work,Bus
Bethesda Ave & Arlington Rd,11479,4337,7142,10849,4189,6660,38.981098288484006,-77.09742123005162,Work,Metro
Bethesda Metro / Wisconsin Ave & Old Georgetown Rd,8189,3799,4390,6110,3149,2961,38.984682323409444,-77.09452953832029,Work,Bus
Bladensburg Rd & Benning Rd NE,11999,7335,4664,13891,8288,5603,38.900415101635375,-76.98288122635427,Work,Metro
Blenheim Blvd & North St,129,58,71,143,54,89,38.84742678470414,-77.30220914273127,Work,
Blueridge Ave & Elkin St,742,159,583,724,164,560,39.04314610070743,-77.05005488383281,Entertainment,
Braddock Rd Metro,4278,2573,1705,4105,2485,1620,38.81457274853261,-77.05280780676725,Living,Bus
Braddock Rd Metro North,4322,2514,1808,3902,2203,1699,38.8145745287232,-77.05280854998514,Living,
Braddock Rd Metro South,11562,7411,4151,11219,7889,3330,38.813477468961196,-77.053734043642,Living,Metro
Branch & Pennsylvania Ave SE,2121,836,1285,2037,760,1277,38.869211586746154,-76.95980322652889,Entertainment,Metro
Briggs Chaney & Castle Dr,946,116,830,845,109,736,39.08163602976761,-76.94550123526679,Living,Metro
Briggs Chaney Park & Ride,1075,324,751,1053,335,718,39.07787428485931,-76.94186760234803,Entertainment,Metro
Broad Branch Rd & Northampton St NW,2841,1815,1026,2745,1841,904,38.96577092597903,-77.06862316564377,Work,Bus
Broadbranch & Northampton NW,12,4,8,7,3,4,38.96578893269681,-77.06862370369039,Entertainment,
Broschart & Blackwell Rd,8,1,7,10,0,10,39.102099,-77.200322,Living,Bus
C & O Canal & Wisconsin Ave NW,43773,20644,23129,57689,25516,32173,38.903746171570276,-77.06268305054051,Living,Bus
California St & Florida Ave NW,72907,51303,21604,73735,51777,21958,38.917763581097546,-77.04062500865493,Entertainment,Metro
Calvert & Biltmore St NW,24980,16894,8086,14738,10782,3956,38.92319584082083,-77.04763730460074,Entertainment,Bus
Calvert St & Woodley Pl NW,38411,26377,12034,33618,23941,9677,38.92358515720562,-77.05004820600564,Work,Bus
Campus Commons,245,69,176,246,63,183,38.94471165613487,-77.3354212095104,Entertainment,Bus
Capitol Ave & Kendall St NE,6816,4997,1819,6817,4751,2066,38.91102691803417,-76.98582692719984,Entertainment,Bus
Capitol Heights Metro,1224,506,718,1121,518,603,38.88852200308927,-76.91316971404477,Living,
Carlin Springs Rd & N Thomas St,6503,4647,1856,5854,4324,1530,38.87669852626691,-77.11297959986075,Living,
Carroll & Ethan Allen Ave,5785,3740,2045,5015,3485,1530,38.977931189177845,-77.0064545030962,Living,Bus
Carroll & Westmoreland Ave,5429,3736,1693,4676,3334,1342,38.974994752981104,-77.01121391637483,Living,Metro
Castle Blvd & Castle Ln,1218,178,1040,1212,166,1046,39.085278053711264,-76.94055055401822,Entertainment,Metro
Central Library / Quincy St & 10th St N,9583,6449,3134,8822,5946,2876,38.88397687404172,-77.1078180443807,Work,
Chain Bridge Rd & Anderson Rd,140,48,92,170,59,111,38.925572189839286,-77.20476190211787,Work,
Charles Arrington Dr & Manchester Lakes Dr ,231,48,183,250,53,197,38.766842710716446,-77.15035549274242,Living,Metro
Chillum Rd & Riggs Rd / Riggs Plaza,4520,2286,2234,4245,1780,2465,38.96173271322562,-76.9959209354295,Entertainment,
Citadel Ave & McGrath Blvd,2107,1065,1042,2030,1003,1027,39.04898800766565,-77.1093306202242,Entertainment,Metro
Clarendon Blvd & N Fillmore St,12298,7206,5092,10409,6662,3747,38.88809810587925,-77.09308068686926,Entertainment,Metro
Clarendon Blvd & Pierce St,16243,10624,5619,15481,10303,5178,38.89344295567105,-77.07637629881492,Living,Metro
Clarendon Metro / Wilson Blvd & N Highland St,30253,19417,10836,23271,15638,7633,38.88710857305408,-77.09520818377658,Work,Metro
Clark St & 26th St S,4912,3016,1896,4644,2952,1692,38.850682119514204,-77.05152338985707,Entertainment,
Columbia & Ontario Rd NW,71111,50679,20432,55532,40400,15132,38.924089727317096,-77.04076091689367,Living,Metro
Columbia Pike & George Mason Dr,1235,694,541,1306,676,630,38.85931871676162,-77.10202740163488,Work,
Columbia Pike & Monroe St,2684,1804,880,2635,1770,865,38.86035168553515,-77.09367610429956,Work,
Columbia Pike & S Courthouse Rd,5776,2946,2830,5120,2781,2339,38.863851766890406,-77.08032395816353,Living,Bus
Columbia Pike & S George Mason Dr,2074,1419,655,2197,1413,784,38.859326498240215,-77.10202658364176,Entertainment,Metro
Columbia Pike & S Greenbrier St,3162,1951,1211,3033,1852,1181,38.85402240479371,-77.11811640130603,Living,Bus
Columbia Pike & S Highland St,1362,879,483,1317,793,524,38.862393898771785,-77.08912619545215,Work,Bus
Columbia Pike & S Oakland St,710,278,432,694,266,428,38.86078536491997,-77.09585981626347,Living,
Columbia Pike & S Orme St,4433,1677,2756,4318,1654,2664,38.86726885544279,-77.07231789979778,Entertainment,Metro
Columbia Pike & S Scott St/12th St S,2236,1042,1194,1998,927,1071,38.86354416560958,-77.07718958030578,Entertainment,Bus
Columbia Pike & S Taylor St,793,229,564,850,265,585,38.858526033057885,-77.10371405498269,Living,
Columbia Pike & S Walter Reed Dr,5650,3556,2094,5454,3326,2128,38.86247633466283,-77.08659428938614,Entertainment,Metro
Columbia Pike & W&OD Trail ,611,470,141,623,444,179,38.856640340469454,-77.10962197446099,Entertainment,Bus
Columbia Rd & Belmont St NW,50869,34909,15960,39983,27598,12385,38.92066471728947,-77.04366979580311,Work,Metro
Columbia Rd & Georgia Ave NW,45053,29798,15255,31040,21073,9967,38.928119286052706,-77.02378868454706,Work,Metro
Columbus Ave & Gramercy Blvd,736,350,386,666,277,389,39.12332020308976,-77.16484903953636,Living,Metro
Columbus Ave & Tribeca St,804,547,257,771,560,211,39.12583117086795,-77.16706746610404,Work,Bus
Columbus Circle / Union Station,147372,99455,47917,149779,100322,49457,38.89697555553224,-77.0049256753104,Work,
Commerce St & Fayette St,5356,2778,2578,6013,3085,2928,38.80564841413924,-77.05293088318194,Work,
Commonwealth Ave & E Monroe Ave,3661,1908,1753,3777,2105,1672,38.82005734386013,-77.06281775024644,Living,
Commonwealth Ave & Oak St,2317,976,1341,2383,1131,1252,38.81270493073765,-77.06171451137932,Entertainment,Bus
Commonwealth and Reed,6480,4049,2431,6599,4206,2393,38.83685785999476,-77.05725866337028,Work,
Congress Heights Metro,3106,1533,1573,2247,1118,1129,38.84471428679733,-76.98782295119398,Living,Metro
Congressional Ln & E Jefferson St,1833,819,1014,1848,867,981,39.062184910251936,-77.1292366404548,Living,Metro
Connecticut & Nebraska Ave NW,15820,9652,6168,14529,9408,5121,38.95499566877089,-77.06994295346975,Work,
Connecticut Ave & Chevy Chase Lake Dr,1918,653,1265,2005,556,1449,38.99416882672297,-77.07701876891217,Entertainment,Metro
Connecticut Ave & Macomb St NW / Cleveland Park,14896,9921,4975,14400,9455,4945,38.93363275481758,-77.05753561259033,Entertainment,Bus
Connecticut Ave & McKinley St NW,7874,5432,2442,7660,5299,2361,38.964535853041596,-77.075138858045,Entertainment,Bus
Connecticut Ave & Newark St NW / Cleveland Park,9244,6120,3124,8735,5915,2820,38.934268503520045,-77.05797425997307,Entertainment,
Connecticut Ave & Ordway St NW / Cleveland Park Metro ,3655,2223,1432,3452,2087,1365,38.935809139953676,-77.05842787651797,Work,Bus
Connecticut Ave & R St NW,57347,38429,18918,58499,39193,19306,38.912644351491345,-77.04563717716522,Living,
Connecticut Ave & Tilden St NW,13125,8572,4553,10763,7160,3603,38.9411366061607,-77.06197158350058,Work,Metro
Connecticut Ave & Yuma St NW,10035,5686,4349,9378,5905,3473,38.94714313010153,-77.06510403953273,Work,Bus
Constitution Ave & 2nd St NW/DOL,62741,21943,40798,62290,23715,38575,38.89227844697892,-77.01391890089309,Living,Metro
Convention Center / 7th & M St NW,61763,41619,20144,58023,38853,19170,38.90573462243118,-77.0222639469149,Entertainment,
Cordell & Norfolk Ave,4916,2605,2311,4322,2260,2062,38.98954625554775,-77.09802435654353,Living,
Corporate Blvd & Omega Dr,579,82,497,589,77,512,39.10697958378438,-77.19263882450495,Work,Bus
Court House Metro / 15th St & N Uhle St,24387,16127,8260,19934,13650,6284,38.89061223361017,-77.08479899178712,Entertainment,Metro
Crabbs Branch Way & Calhoun Pl,24,1,23,25,1,24,39.107709,-77.152072,Entertainment,Bus
Crabbs Branch Way & Redland Rd,28,1,27,29,1,28,39.120045,-77.15698499999999,Living,Metro
Crescent Rd & Ridge Rd,601,160,441,549,158,391,39.00617709613941,-76.89125250544984,Living,
Crystal City Metro / 18th St & S Bell St,21350,12820,8530,20987,12870,8117,38.85774097765681,-77.051641083064,Living,Bus
Crystal Dr & 15th St S,18356,9896,8460,18946,10297,8649,38.86094326230932,-77.04943664228264,Entertainment,Metro
Crystal Dr & 20th St S,18701,9832,8869,19066,9940,9126,38.85642482619239,-77.04923485029782,Living,Metro
Crystal Dr & 23rd St S,16146,8859,7287,16299,9303,6996,38.85299591301026,-77.04973485908471,Work,Bus
Crystal Dr & 27th St S,9698,4425,5273,9649,4849,4800,38.848461678394266,-77.05149169381593,Living,
Crystal Dr & Potomac Ave,567,276,291,540,283,257,38.84829997967372,-77.05122405520282,Entertainment,Bus
D St & Maryland Ave NE,42996,32047,10949,40978,31873,9105,38.89483670185999,-76.99602811948245,Work,Bus
Deanwood Rec Center,1821,895,926,1803,827,976,38.90845558717571,-76.93310327911877,Living,Metro
Dennis Ave & Amherst Ave,1419,622,797,1424,615,809,39.025389082816034,-77.04455720089715,Work,Metro
District Ave & Strawberry Ln/Mosaic Market Garage,1480,425,1055,1569,451,1118,38.872631362952816,-77.23060846460349,Entertainment,
Division Ave & Foote St NE,1013,666,347,1037,620,417,38.89741264784371,-76.92590765052483,Work,Bus
Dorr Ave & Prosperity Ave,206,85,121,204,50,154,38.879258625766994,-77.23358181883252,Entertainment,Bus
Duke St & John Carlyle St,5541,3279,2262,5343,3082,2261,38.80437816813501,-77.06086395879683,Living,Bus
Duke St & Jordan St,910,267,643,989,300,689,38.812193295918135,-77.1099327159141,Work,Metro
Duke St & Strand (Robinson Terminal),3602,1177,2425,4944,1515,3429,38.8019449338412,-77.04029074086505,Living,Bus
Dunn Loring Metro,4385,1393,2992,4159,1397,2762,38.88278345763311,-77.22829072476912,Living,Bus
E Fairfax St & S Washington St,1584,749,835,1615,728,887,38.880609637956724,-77.17189452642214,Living,Bus
E Montgomery Ave & Maryland Ave,1301,558,743,1298,550,748,39.08405164645127,-77.15122793412459,Living,Bus
Eads St & 12th St S,25782,14356,11426,26124,14492,11632,38.86286840862111,-77.05436496122756,Work,Bus
Eads St & 15th St S,12849,7131,5718,12861,7361,5500,38.85925743631827,-77.0532319379636,Entertainment,Metro
Eads St & 22nd St S,11889,6561,5328,11974,6640,5334,38.85438575390515,-77.05340996349884,Living,
East Falls Church Metro / Sycamore St & 19th St N,10739,5421,5318,10522,5674,4848,38.885346227364224,-77.15643480115564,Entertainment,
East West Hwy & 16th St,3165,932,2233,2678,847,1831,38.99566693832725,-77.03871685809004,Work,Metro
East West Hwy & Blair Mill Rd,4583,2410,2173,4118,2338,1780,38.99021533164583,-77.02936594756977,Living,
Eastern Market / 7th & North Carolina Ave SE,55698,38666,17032,55938,38013,17925,38.886954727810036,-76.99680825438949,Living,Bus
Eastern Market Metro / Pennsylvania Ave & 7th St SE,8393,4990,3403,8596,4934,3662,38.88400496176614,-76.99538538300702,Entertainment,Bus
Eastern Market Metro / Pennsylvania Ave & 8th St SE,104927,71440,33487,105649,70614,35035,38.88411426995317,-76.99521112419497,Entertainment,Metro
Eckington Pl & Q St NE,66860,46297,20563,64944,45913,19031,38.9109455274572,-77.00492816060131,Living,Metro
Eden Center,1410,668,742,1379,616,763,38.87379743879586,-77.15285610850216,Entertainment,Bus
Edgewood Rec Center,17939,12289,5650,17024,11933,5091,38.924106752693945,-77.0021110813158,Entertainment,Bus
Eisenhower Ave & Ike Dr,2106,644,1462,1984,638,1346,38.802742282143825,-77.08248148720324,Living,Metro
Eisenhower Ave & Mill Race Ln,6472,3241,3231,6504,3367,3137,38.80110281887183,-77.06894349056724,Work,Bus
Emma Lee St & Morris St,392,149,243,399,171,228,38.87781569190476,-77.20941231133122,Entertainment,Metro
Executive Blvd & E Jefferson St,1349,897,452,1483,996,487,39.04867181372542,-77.12564981552924,Entertainment,Metro
Fair Woods Pkwy & Fairfax Blvd,104,30,74,115,34,81,38.86278069559134,-77.29392057295192,Entertainment,Bus
Fairfax Blvd & Pickett Rd North,160,49,111,183,48,135,38.865091277228125,-77.2719158498,Entertainment,Metro
Fairfax Blvd & Pickett Rd South,143,54,89,159,67,92,38.86475686997552,-77.27149515653147,Work,Metro
Fairfax Dr & N Randolph St,10711,6339,4372,9049,5287,3762,38.88262778718809,-77.10936759157389,Living,
Fairfax Dr & N Taylor St,5287,3509,1778,5045,3383,1662,38.88242255281858,-77.11274179174188,Living,Metro
Fairfax Dr & Wilson Blvd,11270,6869,4401,10372,6315,4057,38.88580284462266,-77.09774594805256,Living,Bus
Fairfax Village,1196,554,642,801,367,434,38.86558732639334,-76.95211657035291,Living,
Fairway Dr & Hook Rd,79,17,62,73,14,59,38.963312827336566,-77.34254499608403,Work,
Falls Church City Hall / Park Ave & Little Falls St,2058,1308,750,2131,1350,781,38.885430375879636,-77.1735954995959,Entertainment,
Fallsgrove Blvd & Fallsgrove Dr,1098,240,858,1094,235,859,39.096310248093275,-77.19266915477093,Work,
Fallsgrove Dr & W Montgomery Ave,1125,87,1038,1076,76,1000,39.099379822159946,-77.18800870554222,Entertainment,Metro
Fenton St & Ellsworth Dr ,6550,3428,3122,6439,3359,3080,38.99699529842031,-77.02558049293799,Entertainment,Metro
Fenton St & Gist Ave,4099,2474,1625,3492,2282,1210,38.98970739997873,-77.02385512863526,Work,Metro
Fenton St & New York Ave ,4167,2706,1461,3459,2331,1128,38.98538761460354,-77.02307374997437,Living,
Fern St & Army Navy Dr,2325,1321,1004,2548,1282,1266,38.86483825398067,-77.05687564422792,Work,Bus
Fessenden St & Wisconsin Ave NW,4902,3330,1572,4381,2982,1399,38.954799674148504,-77.0824044453603,Work,Bus
Fillmore & Bisdorf,590,241,349,494,240,254,38.83862048890113,-77.11619059133955,Work,Bus
First St & Fayette St,4090,2124,1966,3870,2003,1867,38.81701829923635,-77.05009920486222,Work,Metro
First and Fayette,25,8,17,22,12,10,38.817024143333335,-77.0501098,Entertainment,Metro
Fishers Ln & Rock Creek Mill Rd,725,311,414,634,275,359,39.0628860790969,-77.11345965486828,Living,
Fleet St & Ritchie Pkwy,1077,526,551,1155,547,608,39.076321396626426,-77.14137533095735,Work,Metro
Fleet St & Waterfront St,3856,314,3542,3507,365,3142,38.782637555186575,-77.01605862456157,Entertainment,Metro
Florida Ave & R St NW,47134,32248,14886,44816,30871,13945,38.912594048067625,-77.01349287980477,Living,
Fort Lincoln Dr & 33rd Pl NE,946,443,503,895,426,469,38.92164958880794,-76.95569085834136,Work,Bus
Fort Stanton Rec Center,608,219,389,504,184,320,38.857339669088006,-76.97771755171763,Entertainment,Bus
Fort Totten Metro,23198,13334,9864,21021,11593,9428,38.95235493102193,-77.0027235465653,Work,
Founders Row/W Broad St & West St,1553,639,914,1585,647,938,38.89015341365175,-77.18317792747199,Entertainment,
Four Mile Run Dr & S Shirlington Rd,2407,1058,1349,2512,1105,1407,38.844400654729505,-77.0859282021172,Entertainment,Bus
Four Mile Run Dr & S Walter Reed Dr,2897,1494,1403,2956,1490,1466,38.84735905130495,-77.09542347748254,Living,
Franconia-Springfield Metro North,397,112,285,362,109,253,38.766937230675055,-77.16889628923174,Entertainment,
Franklin St & S Washington St,5925,2291,3634,6125,2535,3590,38.79813448253648,-77.04870649443265,Work,Bus
Frederick Ave & Horners Ln,731,333,398,755,351,404,39.094766060756875,-77.14522520288345,Work,Metro
Friendship Blvd & Willard Ave,6819,3518,3301,6346,3223,3123,38.961155048507436,-77.08864250182077,Living,Metro
Friendship Hts Metro / Wisconsin Ave & Wisconsin Cir,9080,5186,3894,8319,4906,3413,38.96175279898729,-77.08598990133515,Entertainment,
Ft Myer Dr & Arlington Blvd,54,37,17,50,28,22,38.89086281746914,-77.0748916080247,Work,Bus
GMU / Fairfax Dr & Kenmore St,2999,2026,973,2531,1801,730,38.88461634930494,-77.10107539779148,Entertainment,Metro
GMU/Fairfax Dr & Kenmore St,5921,4478,1443,5305,4010,1295,38.88469460225387,-77.10032319006996,Work,Metro
GMU/Horizon Hall & Harris Theater,231,90,141,220,99,121,38.83121066782901,-77.30806777195671,Entertainment,Metro
GMU/Patriot Cir & York Dr,311,119,192,337,116,221,38.82749985716351,-77.30415868559464,Work,
GMU/Rappahannock River Ln,232,100,132,214,77,137,38.834799564299225,-77.30705746265468,Work,
Gallaudet / 8th St & Florida Ave NE,8985,5650,3335,8886,5689,3197,38.905091492150845,-76.99412972692542,Entertainment,Metro
Garland Ave & Walden Rd,1423,866,557,1445,827,618,39.00047149069812,-77.0007755863456,Work,
Gatehouse Rd & Telestar Ct,431,121,310,475,164,311,38.86851479328113,-77.22525274665699,Living,Bus
George Mason Blvd & Armstrong St,152,48,104,144,55,89,38.84110034939583,-77.30718113350659,Living,Bus
George Mason Dr & Wilson Blvd,6461,4254,2207,6320,4161,2159,38.87886886871786,-77.12069702177928,Work,Metro
George Mason High School / Haycock Rd & Leesburg Pike,522,280,242,473,233,240,38.89517163027968,-77.19027241959762,Entertainment,Metro
Georgetown Harbor / 30th St NW,49202,23753,25449,65279,29936,35343,38.90230361040469,-77.05913001040602,Living,Metro
Georgia & Missouri Ave NW,12046,7905,4141,10088,6238,3850,38.96132666382395,-77.02784777654574,Work,Bus
Georgia & New Hampshire Ave NW,41155,26589,14566,35506,23262,12244,38.936690982249026,-77.02417645962618,Entertainment,
Georgia Ave & Dahlia St NW,4307,2804,1503,3698,2397,1301,38.97599929091862,-77.02673932786112,Work,Bus
Georgia Ave & Emerson St NW,5750,3412,2338,4341,2386,1955,38.94965787782661,-77.0273353439523,Work,
Georgia Ave & Fairmont St NW,11052,7252,3800,9420,5779,3641,38.92480798079796,-77.02229685316622,Work,
Georgia Ave & Kennedy St NW,6221,3996,2225,4931,2928,2003,38.9567254704428,-77.02792153453268,Work,
Georgia Ave & Morton St NW,34902,22839,12063,30901,20366,10535,38.93211427822196,-77.02349257919954,Work,Bus
Georgia Ave & Piney Branch Rd NW,6687,4506,2181,5914,3727,2187,38.967465084047106,-77.02796900380756,Living,
Georgia Ave & Spring St,1510,718,792,1373,625,748,38.999342924256915,-77.0315694734517,Work,
Georgia Ave and Fairmont St NW,4534,2740,1794,3918,2255,1663,38.924898526203066,-77.02220266324836,Entertainment,Metro
Glade Dr & Pinecrest Rd/Cathy Hudgins Cmty Ctr,255,38,217,212,34,178,38.941488609562164,-77.3665088422245,Work,Metro
Glebe Rd & 11th St N,6411,4128,2283,5553,3634,1919,38.88392576144671,-77.11681543025529,Entertainment,
Golf Course Sq and Golf Course Dr,750,340,410,648,329,319,38.94401229955277,-77.35355071938639,Living,Metro
Good Hope & Naylor Rd SE,1211,542,669,772,313,459,38.86139627158359,-76.9689013550753,Work,Bus
Good Hope Rd & 14th St SE,1943,1111,832,2023,1147,876,38.86663391229115,-76.98524341259751,Entertainment,Metro
Good Hope Rd & MLK Ave SE,4247,2545,1702,4370,2531,1839,38.8673694255376,-76.98804120580772,Work,Metro
Grandview & Blueridge Ave,1103,613,490,1017,583,434,39.043267487570134,-77.05308137836754,Work,
Grant Circle,19152,11404,7748,13308,8222,5086,38.94201818676961,-77.0182348375831,Work,Bus
Gravelly Point,48405,16372,32033,48470,16498,31972,38.86502979872766,-77.03951273870513,Entertainment,
Green Range Dr and Glade Dr,298,52,246,313,63,250,38.93720714521922,-77.36785333808841,Living,
Greenbelt Station Parkway,1379,394,985,1357,379,978,39.00245768971547,-76.91624656487429,Work,Bus
Greensboro & International Dr,566,195,371,445,140,305,38.92306094661793,-77.2274437871306,Living,Metro
Greensboro & Pinnacle Dr,699,209,490,529,165,364,38.92244943330384,-77.23034266842058,Living,Metro
Greensboro Metro East,566,270,296,513,232,281,38.920689946158525,-77.23315136790009,Living,Bus
Hains Point/Buckeye & Ohio Dr SW,34104,16109,17995,34992,16618,18374,38.87843707801491,-77.03023172830851,Work,Bus
Half & Water St SW,16651,8958,7693,16836,9037,7799,38.866289317412296,-77.01054974118425,Work,
Hamlin & 7th St NE,15160,9823,5337,14093,9116,4977,38.92749385120978,-76.99719810283719,Entertainment,
Hardy Rec Center,12034,7659,4375,11854,7805,4049,38.90968939657574,-77.08560964018062,Living,Bus
Hartland Rd & Harte Pl,829,392,437,810,372,438,38.87861859886189,-77.22280042158444,Entertainment,
Harvard St & Adams Mill Rd NW,19636,10138,9498,19866,9907,9959,38.927870920698936,-77.0433464298109,Work,Bus
Henry Bacon Dr & Lincoln Memorial Circle NW,108025,19976,88049,107810,21340,86470,38.89054048312357,-77.04938134065601,Entertainment,Bus
Henry St & Pendleton St,3884,2280,1604,3693,2024,1669,38.811475990025244,-77.05027008453311,Living,
Hilltop Rd & Willowmere Dr ,96,52,44,107,55,52,38.87690171753472,-77.24151467051215,Entertainment,
Holmes Run Pkwy & N Pickett St,2149,539,1610,2218,621,1597,38.81430569105367,-77.11892830083768,Work,Metro
Hyattsville Library / Adelphi Rd & Toledo Rd,1230,532,698,1207,513,694,38.969770458236006,-76.94929121759876,Living,Bus
Independence Ave & L'Enfant Plaza SW/DOE,27292,10497,16795,28567,11356,17211,38.88731346192353,-77.0258380527359,Entertainment,
Inlet Ct & Wiehle Dr,131,38,93,92,29,63,38.96597788655896,-77.33435422301062,Living,Bus
Iwo Jima Memorial / Meade & 14th St N,21727,9383,12344,23663,8533,15130,38.88991872115086,-77.07129992986388,Entertainment,
Jefferson Dr & 14th St SW,125813,25427,100386,129290,27807,101483,38.88855500473551,-77.03242634117827,Entertainment,
Jefferson Memorial,76677,22300,54377,76820,22670,54150,38.87982014454889,-77.0374150604754,Entertainment,Metro
John McCormack Dr & Michigan Ave NE,9409,5975,3434,8978,5486,3492,38.934606436772576,-76.99550547674778,Entertainment,
John McCormack Rd & Michigan Ave NE,107,78,29,101,71,30,38.93460558385358,-76.9955003515,Work,Metro
John McCormack Rd & Michigan Ave NE ,14,10,4,10,8,2,38.93888101817858,-76.99722958903571,Living,Metro
John McCormack Rd NE,7659,4690,2969,6393,3871,2522,38.938869068660885,-76.99723567825461,Entertainment,
Joliet St & MLK Ave SW/Bald Eagle Rec Ctr,329,137,192,310,119,191,38.81908998544728,-77.01034622590512,Entertainment,
Jones Branch & Westbranch Dr,678,330,348,732,363,369,38.93190960131754,-77.2192649144298,Living,Bus
Jones Branch Dr & Blyton St,633,333,300,642,331,311,38.92696837413875,-77.21738086469537,Entertainment,Bus
Jones Branch Drive & Scotts Crossing Rd,586,324,262,600,337,263,38.92848551838813,-77.21563469741079,Entertainment,Metro
Joyce St & 16th St S,11755,7842,3913,11470,7982,3488,38.85925978523913,-77.06327408006051,Living,
Kansas Ave & Longfellow St NW,6105,3891,2214,5224,3206,2018,38.95808097983258,-77.01381782652399,Entertainment,Bus
Kansas Ave & Sherman Cr NW,20953,12877,8076,16314,10506,5808,38.94796734890117,-77.02153710458964,Entertainment,Metro
Kansas Ave & Tuckerman St NW / Lamond Rec ,333,174,159,300,130,170,38.96750480826526,-77.00700808527327,Work,Bus
Kenilworth Terr & Hayes St. NE,1221,678,543,1212,700,512,38.900463015433424,-76.94728719997923,Work,Bus
Kenilworth Terrace & Hayes St. NE,1115,350,765,1198,398,800,38.90045659665182,-76.94729471165431,Living,
Kenmore Ave & Seminary Rd,1006,289,717,910,270,640,38.82890627736349,-77.11058510975624,Entertainment,Metro
Kenmore St & 24th St S,1323,729,594,1433,898,535,38.84845484190913,-77.084910754365,Entertainment,Metro
Kennebec St & 11th St N,5131,3153,1978,5191,3153,2038,38.8809950481653,-77.13526848674468,Living,Metro
Kennedy Center,25039,13650,11389,27204,15334,11870,38.897297694724074,-77.05555934237731,Entertainment,
Kenwood Ave & Osage St,98,33,65,86,33,53,38.8279764750085,-77.08474183068367,Work,Metro
Key Blvd & N Quinn St,1087,634,453,909,573,336,38.89634880788,-77.07842426366375,Entertainment,
Key West Ave & Diamondback Dr,592,92,500,616,95,521,39.10615241257105,-77.20235790781543,Living,
Key West Ave & Great Seneca Hwy,380,49,331,382,50,332,39.10564238836198,-77.2038630809264,Living,Bus
Key West Ave & Siesta Key Way,737,99,638,716,94,622,39.10529565409485,-77.19477805416739,Entertainment,Bus
King Farm Blvd & Piccard Dr,1429,396,1033,1389,323,1066,39.110313462880015,-77.18267596710287,Work,Metro
King Farm Blvd & Pleasant Dr,1973,560,1413,1930,628,1302,39.11468072587759,-77.1714970992847,Entertainment,Metro
King Greenleaf Rec Center,13676,8859,4817,15749,9783,5966,38.87621360322304,-77.0124410927481,Living,Bus
King St & Kenwood Ave,421,159,262,292,106,186,38.82478978489232,-77.08505900734521,Entertainment,Metro
King St & N Pitt St,7035,3740,3295,7812,3909,3903,38.80480100742369,-77.04467013401536,Work,
King St & Patrick St,7214,3264,3950,8009,3497,4512,38.8053145718248,-77.04988631090251,Living,Metro
King St & Peyton St,2811,1273,1538,2918,1533,1385,38.80600410530765,-77.05590947687773,Living,Metro
King St & W Braddock Rd,967,448,519,857,434,423,38.82767937444984,-77.0889828507218,Entertainment,
King St Metro North / Cameron St,11644,6470,5174,11984,6674,5310,38.807037126319926,-77.05981046576717,Entertainment,Metro
King St Metro South,6699,3496,3203,6522,3913,2609,38.80576470643217,-77.06062871334275,Work,Metro
Kingman Island/The Fields at RFK,9805,5699,4106,9979,5941,4038,38.89595355468349,-76.9678483309487,Entertainment,
Kingsbridge Dr & Draper Dr,71,26,45,76,30,46,38.86854428727182,-77.28208260565657,Living,
L'Enfant Plaza / 7th & C St SW,34792,15745,19047,35978,15927,20051,38.886268456037016,-77.0222454953376,Entertainment,Bus
Lake Newport Rd and Autumn Ridge Cir,520,163,357,542,151,391,38.97700760849051,-77.35321632756629,Entertainment,Bus
Lamont & Mt Pleasant NW,69503,45400,24103,60372,40373,19999,38.93190885949524,-77.03878888009254,Living,Metro
Langston Blvd & N Adams St,12421,8316,4105,8244,6133,2111,38.89593465965645,-77.08900347189427,Work,
Langston Blvd & N Cleveland St,6893,4012,2881,5278,3126,2152,38.89494340651648,-77.09168601388906,Work,Bus
Langston Blvd & N Kirkwood Rd,1627,900,727,1706,1007,699,38.895373874186035,-77.09715194665438,Living,Bus
Langston Blvd & N Kirkwood St,1002,596,406,1057,674,383,38.89537335600197,-77.09714593092278,Work,Metro
Langston Blvd & N Monroe St,4134,2269,1865,3999,2107,1892,38.896453152673004,-77.10454112586179,Living,
Langston Blvd & N Scott St,7937,5242,2695,7236,4828,2408,38.89761662156906,-77.08084662837109,Entertainment,Metro
Langston Blvd & N Woodstock St,3580,1871,1709,2863,1489,1374,38.898300976693854,-77.11801480161074,Living,Metro
Largo Rd & Campus Way / Prince Georges's Comm Col,828,70,758,848,107,741,38.88993826906561,-76.82553798254851,Entertainment,Metro
Largo Town Center Metro,1111,206,905,975,165,810,38.89980888904492,-76.84460187470127,Work,
Layton Hall Dr & University Dr,91,40,51,96,32,64,38.85093507273626,-77.30273609835166,Work,
Lee Center,1809,1159,650,1719,1202,517,38.79755779564086,-77.0537668433264,Entertainment,Metro
Lee Hwy & N Adams St,1502,765,737,1111,652,459,38.895934167802565,-77.08899761557441,Entertainment,
Lee Hwy & N Cleveland St,1150,771,379,999,544,455,38.89494325347043,-77.0916965873192,Living,Bus
Lee Hwy & N Kirkwood Rd,924,478,446,934,537,397,38.895371253483134,-77.09715440733139,Entertainment,Metro
Lee Hwy & N Monroe St,1052,532,520,997,557,440,38.896452046524715,-77.10455338588373,Work,Bus
Lee Hwy & N Scott St,3421,2286,1135,3119,2005,1114,38.89761707738049,-77.08084838140515,Living,
Lee Hwy & N Woodstock St,999,415,584,812,399,413,38.89830415957398,-77.11800618341186,Living,Bus
Library St & Freedom Dr,1542,480,1062,1498,459,1039,38.95963558334048,-77.3587430560303,Work,Bus
Lincoln Memorial,138744,26005,112739,134956,28324,106632,38.888256545840704,-77.04943547357709,Entertainment,Metro
Lincoln Park / 13th & East Capitol St NE ,55186,39940,15246,52287,38433,13854,38.89046423857637,-76.98836293703891,Living,Metro
Lincoln Rd & Seaton Pl NE/Harry Thomas Rec Center,17058,11551,5507,14774,10399,4375,38.914992216585844,-77.00779553131541,Work,Bus
Links Dr & Wedge Dr,274,78,196,260,84,176,38.95902522769085,-77.33929512556178,Work,
Livingston Rd & 3rd St SE,1273,527,746,1379,550,829,38.8237332061682,-77.00223106028864,Entertainment,
Long Bridge Aquatic Center,5707,3243,2464,5580,3466,2114,38.87056146773952,-77.04409522261423,Work,Bus
Long Bridge Aquatic ctr,106,56,50,83,51,32,38.87056109639887,-77.04409349575772,Work,
Long Bridge Park / Long Bridge Dr & 6th St S,4404,2507,1897,4609,2770,1839,38.865557336442265,-77.05002805404247,Work,Bus
Loughboro Rd & Dalecarlia Pkwy NW / Sibley Hospital,1280,784,496,1205,756,449,38.93584578927018,-77.10687858870456,Entertainment,Metro
Lynn St & 19th St North,17622,9600,8022,24803,14461,10342,38.89733559205922,-77.07096823273362,Living,Metro
Lyttonsville Rd & Lyttonsville Pl,1384,379,1005,1366,393,973,38.99965856336228,-77.05116537489693,Living,
M St & Delaware Ave NE,44247,29445,14802,45044,29695,15349,38.905677848275275,-77.00316853557001,Entertainment,Bus
M St & New Jersey Ave SE,27114,17090,10024,34134,20320,13814,38.876280936821686,-77.00384481669877,Work,Bus
M St & Pennsylvania Ave NW,70214,38305,31909,78527,42404,36123,38.90512545672624,-77.05688074003514,Work,Metro
MBT & Bryant St NE,38183,22377,15806,37368,22152,15216,38.922380027073395,-76.99603441467049,Entertainment,
MLK & Marion Barry Ave SE,918,656,262,958,729,229,38.86736295782807,-76.98804368925764,Entertainment,Bus
MTL-ECO5-03,2,2,0,2,2,0,,,Entertainment,
Madison St & Fairfax St,9963,4483,5480,10623,4873,5750,38.81235224090538,-77.04068945981984,Work,Bus
Madison St & N Henry St,3557,2199,1358,3393,2134,1259,38.813485718015784,-77.04946662400894,Work,Metro
Madrillon Rd & Boss St,465,216,249,390,176,214,38.91001035657993,-77.22626553935697,Entertainment,
Madron Ln & Bermudez Ct,443,220,223,435,202,233,38.904415944946194,-77.22182617631904,Entertainment,
Main Line Blvd & E Glebe,10507,6300,4207,10514,6143,4371,38.832427399017064,-77.04976231149047,Work,
Maine Ave & 7th St SW,71355,32704,38651,79009,36212,42797,38.87870228508602,-77.02305451147643,Entertainment,Bus
Maine Ave & 9th St SW,74340,34380,39960,79233,34306,44927,38.88044152581339,-77.02523017208216,Entertainment,
Maine Ave & Water St SW,15294,8991,6303,19324,10780,8544,38.87674839778447,-77.0209444690566,Work,Metro
Mandeville Ln & Stovall St,2165,1101,1064,2159,1111,1048,38.80288645223903,-77.07257828028816,Living,Metro
Maple & Ritchie Ave,3009,1741,1268,3850,2111,1739,38.98362575852064,-77.00631836021013,Living,
Marion Barry Ave & Naylor Rd SE,491,309,182,419,192,227,38.8616494493004,-76.96917876990224,Entertainment,
Market Square / King St & Royal St,13542,6705,6837,15629,6677,8952,38.804717738794196,-77.04335985836133,Living,Bus
Market St & St Francis St,729,173,556,749,186,563,38.958660075117976,-77.36151736187814,Work,
Maryland Ave & 17th St NE,18861,11899,6962,17960,10720,7240,38.90193967774016,-76.9786412244224,Entertainment,
Maryland Ave & E St NE,40889,29814,11075,38668,28215,10453,38.89620662127657,-76.99282854553792,Work,
Marymount University / Yorktown Blvd & 26th St N,599,281,318,561,285,276,38.9042435351636,-77.1277810539552,Living,Metro
Massachusetts & Idaho Ave NW,2251,1062,1189,1884,978,906,38.93133852965867,-77.07721804950563,Work,Metro
Massachusetts Ave & 6th St NE,34529,23072,11457,30768,20776,9992,38.89293075269349,-76.99829504728729,Living,
Massachusetts Ave & Dupont Circle NW,108675,70779,37896,116885,75885,41000,38.91010434122631,-77.04439136312541,Living,Bus
McLean Metro,2005,1057,948,2082,1084,998,38.924039154533304,-77.20797499503931,Work,Bus
Medical Center Dr & Key West Ave,218,60,158,193,51,142,39.10309213615538,-77.1964430026589,Entertainment,Bus
Medical Center Metro ,3951,1917,2034,3360,1624,1736,38.99938059163036,-77.09788977782213,Living,
Meridian High School / Haycock Rd & Leesburg Pike,379,176,203,370,177,193,38.89597452150508,-77.1918347420443,Entertainment,
Merrifield Cinema & Merrifield Town Center,2671,606,2065,2924,655,2269,38.87009648268107,-77.22996348933191,Entertainment,Bus
Merrilee Dr & Lauren Elizabeth Lane,1886,349,1537,1750,380,1370,38.879066868047616,-77.23071296679719,Living,Bus
Metro Center / 12th & G St NW,57219,35196,22023,68775,42061,26714,38.89833802530295,-77.02790574417232,Living,Bus
Metro Park Dr & Walker Ln ,27,17,10,31,18,13,38.76842930661111,-77.15650289972223,Entertainment,Bus
Michigan Ave & Allison St NE,196,118,78,212,99,113,38.94507864229847,-76.97878782175002,Work,
Minnesota Ave & D St SE ,1,0,1,1,0,1,38.883841423,-76.957523372,Work,Bus
Minnesota Ave & R St SE,2945,1831,1114,2933,1747,1186,38.86934621303591,-76.9785249981979,Living,Metro
Minnesota Ave Metro/DOES,2361,1224,1137,2440,1150,1290,38.89705482986275,-76.9474425158594,Living,Bus
Mission Square Dr & Miranda Ct,29,16,13,31,19,12,38.86899802131035,-77.27547507868967,Living,Bus
Mississippi Ave & 19th St SE / THEARC,903,551,352,951,580,371,38.84376839372983,-76.97557078598436,Living,
Monroe Ave & Leslie Ave,6467,4058,2409,6523,4147,2376,38.8209306144946,-77.0530929587886,Living,Metro
Monroe St & Monroe Pl,1155,767,388,1104,758,346,39.08367248806685,-77.14915941573778,Work,Metro
Montello Ave & Holbrook Terr NE,18081,11142,6939,17322,10869,6453,38.90743180097127,-76.98682874475895,Living,
Montgomery & East Ln,2523,1229,1294,2103,1175,928,38.983518439072185,-77.09536670451755,Work,Metro
Montgomery Ave & Waverly St ,3395,1581,1814,2239,1210,1029,38.98383971629971,-77.09220049910205,Living,Metro
Montgomery College / W Campus Dr & Mannakee St,699,341,358,684,331,353,39.095662466471666,-77.15904476126846,Living,Metro
Motivate BX Tech office,353,353,0,355,354,1,38.964405999810296,-77.01075900016227,Entertainment,Bus
Motivate Tech Office,8,8,0,21,13,8,,,Living,Bus
Mount Vernon Ave & Bruce St,2787,1777,1010,3067,1772,1295,38.84129326476164,-77.06308867674255,Entertainment,Bus
Mount Vernon Ave & E Del Ray Ave,6180,3324,2856,6340,3411,2929,38.82595298226204,-77.05854423151645,Work,Metro
Mount Vernon Ave & E Nelson Ave,6083,4088,1995,6032,4023,2009,38.82006155289753,-77.05761852852896,Entertainment,
Mount Vernon Ave & Four Mile Run Park,5080,2210,2870,5657,2412,3245,38.84343632918166,-77.06401030873376,Work,
Mount Vernon Ave & Kennedy St,4948,2434,2514,4911,2389,2522,38.83307335032458,-77.05982311933431,Work,Bus
Mt Vernon Trail & S. Washington St.,13492,4657,8835,13488,4658,8830,38.793068255550224,-77.04942118734914,Living,Metro
N Hampton Dr & Ford Ave,1431,741,690,1451,798,653,38.83730567412733,-77.10611326161565,Entertainment,Metro
N Howard St & N Imboden St,421,152,269,337,157,180,38.818493347443685,-77.10558986183436,Work,Bus
N Howard St & Taney Ave,1172,409,763,1039,311,728,38.815839701333815,-77.11004163381149,Work,
N Lynn St & Fairfax Dr,18645,11712,6933,20854,12702,8152,38.893854367018434,-77.07086652681225,Work,
N Moore St & Rosslyn Metro,1,0,1,6,6,0,38.896086906318665,-77.07145214080809,Work,Bus
N Oak St & W Broad St,2194,1197,997,2245,1234,1011,38.88835779106551,-77.1798411401715,Entertainment,Metro
N Pershing Dr & N George Mason Dr,2749,1762,987,2704,1688,1016,38.87181729033079,-77.10791566848758,Living,
N Pershing Dr & N Quebec St,1961,1254,707,1704,946,758,38.87425860315907,-77.10478845689491,Living,
N Pershing Dr & N Wayne St,3712,1962,1750,2999,1624,1375,38.88070722665063,-77.08601246589858,Entertainment,
N Pershing Dr & Quebec St,470,285,185,447,259,188,38.87425147429078,-77.10479481312058,Work,
N Pitt & Wythe St,190,106,84,257,140,117,38.8117646418511,-77.04317473001032,Entertainment,Metro
N Pitt St & Montgomery St,6270,2826,3444,6849,3109,3740,38.81406179437202,-77.04279335421924,Living,Bus
N Quincy St & Glebe Rd,6646,3988,2658,5875,3552,2323,38.87639658504354,-77.10772641388897,Entertainment,Bus
N Roosevelt St & Roosevelt Blvd,3285,1073,2212,3178,1229,1949,38.87808607254449,-77.1539492535878,Living,Metro
N Shore Dr & Bandit Loop,137,54,83,143,65,78,38.95937103909124,-77.33178888179806,Living,Bus
N Shore Dr & Wainwright Dr,505,102,403,551,85,466,38.96386597807459,-77.34951233780923,Work,Bus
N Veitch St & 20th St N,10513,6393,4120,9770,6499,3271,38.896933469648204,-77.08648108708448,Living,Bus
N Veitch St & Key Blvd,4525,3148,1377,3646,2573,1073,38.89324125444797,-77.0860475784838,Work,
N. Beauregard St. & Berkley St.,2666,1284,1382,2695,1330,1365,38.841268214029725,-77.1081742638026,Work,Metro
Nannie Helen Burroughs & Minnesota Ave NE,1112,597,515,1231,649,582,38.90138481239259,-76.94188184121184,Entertainment,
Nannie Helen Burroughs Ave & 49th St NE,1652,887,765,1694,889,805,38.89853078161707,-76.93185792997771,Living,
National Airport,7074,3651,3423,7427,3899,3528,38.85293376667046,-77.04593634527899,Work,Bus
National Harbor Carousel,12292,841,11451,12339,868,11471,38.78590227003656,-77.01670281413882,Living,Bus
Neal St & Trinidad Ave NE,15072,10522,4550,14963,10422,4541,38.90373559916033,-76.98723793328782,Living,Metro
Needwood Rd & Eagles Head Ct,798,283,515,813,284,529,39.123510030249086,-77.15740979641714,Work,Bus
New Dominion Pkwy & Fountain Dr,1059,229,830,940,234,706,38.96057380947016,-77.35632209522392,Entertainment,
New Hampshire & Gallatin St NW,12626,7880,4746,10716,6334,4382,38.95158802067526,-77.01282299107642,Work,Bus
New Hampshire & Kirklynn Ave,1327,403,924,1399,454,945,38.988069242354946,-76.98845294740921,Living,
New Hampshire & Lockwood,641,148,493,537,119,418,39.0391126174852,-76.9918224434928,Entertainment,Bus
New Hampshire Ave & 24th St NW,61023,41561,19462,63360,42583,20777,38.90175495628354,-77.05108333561724,Living,Bus
New Hampshire Ave & East-West Hwy,2192,1070,1122,2184,1090,1094,38.974191071138534,-76.9952544523435,Work,Metro
New Hampshire Ave & T St NW,153658,112474,41184,151440,114494,36946,38.91554615095208,-77.03824893571326,Work,
New Hampshire Ave & Ward Pl NW,81971,51283,30688,86124,54869,31255,38.90571740584781,-77.04730407055398,Work,
New Jersey Ave & F St NW,62374,42968,19406,68724,47239,21485,38.897113924294274,-77.01161958064559,Living,Metro
New Jersey Ave & H St SE,25948,14989,10959,27051,15731,11320,38.8807360312555,-77.00575755932421,Entertainment,Bus
New Jersey Ave & K St NW,19377,12751,6626,19431,12675,6756,38.90258078286631,-77.01370377260028,Work,Metro
New Jersey Ave & N St NW/Dunbar HS,38025,26222,11803,34478,23734,10744,38.907343874255616,-77.01536099010664,Living,Metro
New Jersey Ave & R St NW,45786,31699,14087,43372,30840,12532,38.91266961920559,-77.01765735672544,Work,Bus
New Mexico & Cathedral Ave NW,1431,849,582,1425,863,562,38.93027637720125,-77.08371765841079,Entertainment,Bus
New York Ave & 15th St NW,29970,13981,15989,33488,14544,18944,38.89902927995179,-77.03335107592979,Work,Metro
New York Ave & Hecht Ave NE,33574,21603,11971,34082,21947,12135,38.915600147161,-76.98368036149208,Entertainment,Metro
Norfolk & Rugby Ave,2536,1130,1406,1911,921,990,38.99063695658221,-77.1002371116169,Living,Metro
Norfolk Ave & Fairmont St,5114,2427,2687,4498,2099,2399,38.988551880521236,-77.09653423916228,Entertainment,Bus
North Bethesda Metro,1867,1379,488,1733,1327,406,39.047377555530176,-77.1127641935417,Work,Metro
North Capitol & K St NE,11112,7868,3244,11294,8127,3167,38.902443557578664,-77.00824583524187,Living,Metro
North Capitol & R St NE,31198,21254,9944,29257,19660,9597,38.91258434008083,-77.00880529600548,Entertainment,Bus
North Capitol St & F St NW,41530,25263,16267,44908,28047,16861,38.897446330224206,-77.0098886657033,Entertainment,Metro
North Capitol St & G Pl NE,19081,12974,6107,19711,13727,5984,38.89971037380285,-77.00895362263458,Work,
North Shore & Cameron Crescent Dr/Crescent Apartments,680,263,417,671,269,402,38.97006935753448,-77.33868119512479,Entertainment,Metro
North Shore Dr & Village Rd,900,146,754,1062,171,891,38.97041187041492,-77.34078986791086,Work,
North Village and Park Garden,323,54,269,340,58,282,38.983201317930856,-77.3418236606579,Living,Metro
Northwestern High School,1248,280,968,1227,291,936,38.97550677019781,-76.95219866506068,Living,Metro
Oak Leaf & Lockwood,736,131,605,627,159,468,39.0380429806407,-76.99454316808686,Entertainment,Bus
Offutt Ln & Chevy Chase Dr,3955,2299,1656,3343,2107,1236,38.97710310755595,-77.09459098214118,Living,Metro
Oglethorpe St & 42nd Ave,2917,601,2316,3115,654,2461,38.95936417361113,-76.94631171454864,Living,Metro
Ohio Dr & West Basin Dr SW / MLK & FDR Memorials,50779,12080,38699,50696,13070,37626,38.88411643862301,-77.04656247305167,Work,Metro
Oklahoma Ave & Benning Rd NE,7452,4817,2635,7795,5172,2623,38.89749592204262,-76.96951865850455,Entertainment,Bus
Oklahoma Ave & D St NE,15865,11184,4681,16274,11740,4534,38.89447270611234,-76.97484127556234,Work,Bus
Old Georgetown Rd & Southwick St,5321,2677,2644,4715,2768,1947,38.999621181425766,-77.1096413045303,Work,
Old Meadow Rd & Cathy Ln,514,221,293,503,228,275,38.916903481286965,-77.21388371297374,Work,
Old Meadow Rd & Old Meadow Ln,213,104,109,224,111,113,38.918987803699785,-77.21245937448691,Entertainment,
Olde Crafts Dr and Cartwright Pl,411,172,239,448,148,300,38.938804592252396,-77.35405849856915,Living,
Oxon Hill Park & Ride,745,240,505,474,150,324,38.79874782009038,-77.00103248693549,Entertainment,
Park Pl & Rock Creek Church Rd NW,11093,7222,3871,8353,5906,2447,38.937126266264926,-77.01914202103973,Living,Bus
Park Rd & Holmead Pl NW,62641,43542,19099,41069,30145,10924,38.9308015558032,-77.03146939462746,Entertainment,
Park Run & Onyx Dr,2804,1428,1376,2652,1440,1212,38.927555804346035,-77.22656176888506,Work,Metro
Pennsylvania & Minnesota Ave SE,2917,1862,1055,3249,2037,1212,38.87305917396912,-76.97101663950201,Entertainment,Bus
Pennsylvania Ave & Park Ave,1985,914,1071,2052,935,1117,38.887400995502844,-77.17698857059455,Entertainment,
Penrose Sq/Columbia Pike & S Barton St,2488,1436,1052,2329,1375,954,38.86351189319957,-77.08425096240103,Entertainment,Bus
Pentagon City Metro / 12th St & S Hayes St,22478,12778,9700,22767,12844,9923,38.86229492691336,-77.05993698775437,Entertainment,Bus
Pentagon Row Plaza / Army Navy Dr & Joyce St,9379,5651,3728,9431,5728,3703,38.86331781313238,-77.06341146326531,Work,
Perry & 35th St,2914,1503,1411,3257,1670,1587,38.93619286234609,-76.96008501503863,Work,Bus
Pershing Dr & N George Mason Dr,3060,1537,1523,2797,1530,1267,38.8718193019471,-77.10790247452745,Living,
Pershing Dr & Wayne St,3389,1691,1698,2550,1341,1209,38.880710880048824,-77.08601361718988,Living,
Philadelphia & Maple Ave,1014,628,386,1219,768,451,38.98127458627148,-77.01132748289763,Entertainment,
Piccard & W Gude Dr,753,437,316,787,471,316,39.10220832002577,-77.17709689172486,Work,
Pimmit Dr & Idyl Ln,393,119,274,388,136,252,38.89769092641221,-77.20725563574173,Entertainment,Bus
Pimmit Dr & Los Pueblos Ln,872,428,444,886,404,482,38.90046120056461,-77.20530355046961,Living,Bus
Pleasant St & MLK Ave SE,2578,1503,1075,2600,1502,1098,38.86389639910519,-76.9900277033503,Living,Bus
Pooks Hill Rd & Linden Ave,1777,355,1422,1724,360,1364,39.01472322662306,-77.10717123610877,Work,
Potomac & M St NW,53049,29654,23395,63826,33191,30635,38.90546762126145,-77.06520374251107,Entertainment,Bus
Potomac & Pennsylvania Ave SE,38680,26344,12336,38662,26181,12481,38.88030276215073,-76.98620565686534,Living,Bus
Potomac Ave & 35th St S,7506,3864,3642,7709,4283,3426,38.844027562741985,-77.05052949047854,Living,Metro
Potomac Ave & 8th St SE,15287,9522,5765,16283,10022,6261,38.87673769111954,-76.99446670006003,Work,
Potomac Ave & Half St SW,17013,9754,7259,18658,10497,8161,38.86976172807322,-77.01079608446136,Work,Bus
Potomac Ave & Main Line Blvd,5737,2966,2771,5769,3004,2765,38.82273525854505,-77.0492727404889,Work,
Potomac Ave & Swann Ave,9822,4677,5145,9860,4824,5036,38.82954604395691,-77.04784431196933,Work,Bus
Potomac Greens Dr & Slaters Ln,6139,3842,2297,6234,3819,2415,38.82174994453486,-77.04749389674265,Work,Bus
Potomac Yard Metro South,2256,1201,1055,2281,1271,1010,38.83345963940581,-77.0478455740945,Work,
Powhatan St & Bashford Ln,4912,3105,1807,4899,3255,1644,38.81874847781226,-77.04778347344819,Entertainment,Metro
Prince George's Plaza Metro,6016,2092,3924,5566,1985,3581,38.96573806785082,-76.95479254036115,Entertainment,Bus
Prince St & Union St,15480,5126,10354,19809,5679,14130,38.8031273931155,-77.04035631699801,Living,
Prosperity Ave & Avenir Pl,300,119,181,232,109,123,38.88143746054091,-77.23037658326501,Living,
Queens Chapel & Hamilton St,2684,1002,1682,2780,1146,1634,38.9545831999293,-76.95954914120601,Work,
Radford & Osage St,360,132,228,283,137,146,38.82847552087917,-77.08605106187176,Entertainment,Metro
Radford St & Osage St,967,403,564,783,332,451,38.82844457531481,-77.08603034397996,Work,Metro
Randle Circle & Minnesota Ave SE,1246,537,709,1265,472,793,38.877995961427914,-76.96070845110856,Work,Metro
Reed & Edison,1965,1184,781,2049,1195,854,38.837294527512555,-77.06088494244588,Living,Metro
Reed and Edison,84,34,50,89,39,50,38.8372802202381,-77.06089863293651,Living,Metro
Reservoir Rd & 38th St NW,34618,23281,11337,33501,23668,9833,38.91262998832657,-77.07431525256749,Entertainment,
Reston Pkwy & Bennington Woods Rd,526,126,400,498,104,394,38.97362360493091,-77.35183554032713,Living,Metro
Reston Pkwy & Spectrum Dr,665,163,502,591,132,459,38.964223395055456,-77.35402532104001,Entertainment,Metro
Reston Regional Library,197,36,161,165,36,129,38.96209546086756,-77.35881421946368,Entertainment,Metro
Reston Station Blvd & Sunset Hills Rd,278,90,188,254,91,163,38.9467301880012,-77.33103850126199,Entertainment,Bus
Reston Town Center Metro North,1962,812,1150,1903,1003,900,38.95368096419419,-77.35970513187003,Entertainment,Metro
Reston Town Center Metro South,451,193,258,368,193,175,38.95224524150961,-77.36066091966185,Work,Bus
Reston Town Center Transit Station,1756,347,1409,1760,313,1447,38.95703680296753,-77.35971762196755,Entertainment,Metro
Reston YMCA,1637,652,985,1704,639,1065,38.95531468293781,-77.36841531975558,Work,Metro
Rhode Island & Connecticut Ave NW,42589,29207,13382,44510,30016,14494,38.90599531403035,-77.03981828832407,Work,
Rhode Island & Montana Ave NE,5602,2792,2810,4509,2339,2170,38.924292020959435,-76.98591712724286,Work,
Rhode Island Ave & 39th St / Brentwood Arts Exchange,2350,1012,1338,2608,1160,1448,38.939258178025206,-76.95506569107432,Living,
Rhode Island Ave & V St NE,13177,8123,5054,8273,5216,3057,38.918162690867916,-77.00475921223776,Entertainment,Metro
Rhode Island Ave Metro,19424,11878,7546,18399,11416,6983,38.92067322230818,-76.99588338267361,Living,
Rhodes St & 16th St N,6498,4023,2475,5138,3035,2103,38.8921706865294,-77.07937228954428,Living,
Ridge Heights Rd & Seahawks Dr,756,501,255,768,524,244,38.936059852639346,-77.33777861350121,Entertainment,Metro
Ridge Heights and Owl Cove Ln,614,330,284,695,340,355,38.93392346733974,-77.33165227979953,Living,Metro
Ridge Rd & Southern Ave SE,168,78,90,132,72,60,38.87297499049306,-76.9352625549871,Living,Metro
Ridge Rd Community Center,321,140,181,253,112,141,38.876191959718184,-76.9409079525514,Living,
Riggs Rd & East West Hwy,1433,470,963,1534,460,1074,38.972507597622766,-76.98066243248716,Work,
Ring Rd & North Shore Dr,262,64,198,269,68,201,38.97080603784184,-77.32676044762245,Entertainment,
River Rd & Landy Ln,10283,4597,5686,10119,5117,5002,38.9649938166953,-77.10337891134564,Living,
Riverdale Park Town Center,5038,1632,3406,5255,1631,3624,38.96211967351306,-76.93558297009378,Work,Bus
Rockville Metro East,917,526,391,871,528,343,39.08539608400959,-77.14581395997209,Living,
Rockville Metro West,900,523,377,796,496,300,39.08437874266632,-77.14686421395035,Work,
Rockville Pike & Meeting St,497,102,395,464,99,365,39.05054605660219,-77.11522166935882,Living,
Rockville Pike & Old Georgetown Rd,1443,856,587,1388,867,521,39.049763450377164,-77.1136791008471,Work,
Rockville Pike & Rose Ave,412,230,182,392,227,165,39.050997763207526,-77.11543037918851,Work,Bus
Roland Clarke Pl & Sunrise Valley Dr,1,0,1,4,0,4,38.949366,-77.350396,Entertainment,Metro
Rolfe St & 9th St S,5446,3273,2173,5295,3324,1971,38.86647162457218,-77.07613077708342,Living,
Roosevelt Center & Crescent Rd,863,324,539,837,317,520,39.00030929386122,-76.87800685757165,Living,Metro
Roosevelt Island,31808,10096,21712,32336,11212,21124,38.89655294986694,-77.06714090143512,Living,Metro
Rosedale Rec Center,11401,6961,4440,11497,6966,4531,38.89781642706872,-76.9796410131074,Entertainment,
Rosslyn Metro / Wilson Blvd & Ft Myer Dr,3058,1732,1326,3735,2213,1522,38.89460634326855,-77.07229484076115,Work,Bus
Rosslyn Metro / Wilson Blvd & N Moore St,27096,16363,10733,32562,22551,10011,38.89608607229955,-77.07144790758574,Work,Metro
Route 29 & Bisvey Dr,415,87,328,423,94,329,38.87693853001204,-77.19572724107027,Entertainment,Metro
Route 29 & Circle Woods Dr,220,94,126,207,91,116,38.86911317714156,-77.27153658781218,Work,Metro
Royal St & Wilkes St,6499,3005,3494,6904,3151,3753,38.7992778538557,-77.04469892522444,Living,Metro
S Arlington Mill Dr & Campbell Ave,9445,3669,5776,10093,4260,5833,38.842334771435574,-77.08954532809179,Entertainment,Bus
S Clark St & 33rd St,5845,3128,2717,5882,3215,2667,38.84503350895955,-77.0519318985719,Work,Bus
S Four Mile Run Dr & Shirlington Rd,1794,897,897,1845,953,892,38.844401318277036,-77.08592123160192,Work,
S Four Mile Run Dr & Walter Reed Dr,2288,1139,1149,2388,1169,1219,38.84739163974986,-77.09538874381076,Work,
S George Mason & Four Mile Run Dr,1936,832,1104,2090,940,1150,38.85224947162489,-77.10502462455779,Work,Bus
S George Mason Dr & S Four Mile Run Dr,1489,794,695,1517,738,779,38.85224970833076,-77.10503072561676,Work,
S Glebe Rd & Potomac Ave,11224,6348,4876,11349,6206,5143,38.84260559511817,-77.05020364736205,Work,Bus
S Jordan St & Venable St,692,217,475,763,254,509,38.81134287590728,-77.10988126826003,Work,Bus
S Kenmore St & 24th St S,1480,909,571,1563,881,682,38.84847919850709,-77.08490260303975,Entertainment,Metro
S Maple Ave & S Washington St,2598,997,1601,2676,902,1774,38.87972863511385,-77.17837418808558,Living,Metro
S Pickett St & Shillings St,1154,570,584,1148,566,582,38.8044849267563,-77.13232866143761,Entertainment,Metro
S Randolph St & Campbell Ave,3041,1370,1671,3335,1646,1689,38.84063978056996,-77.08867084812641,Entertainment,Bus
S Reynolds St & Edsall Rd,555,203,352,528,209,319,38.8096024854988,-77.12891389797898,Living,
S Troy St & 26th St S,2315,1171,1144,2441,1248,1193,38.84799578796501,-77.07510393300856,Entertainment,Bus
S Wakefield St & 28th Rd S,287,118,169,339,144,195,38.84403801858305,-77.09809275348434,Work,Bus
S Wakefield St & 28th St S,1050,561,489,1163,669,494,38.84403896961841,-77.09809044531286,Living,
S Washington St & Wilkes St,1421,651,770,1658,776,882,38.80070417517312,-77.04806500671651,Entertainment,
S Wayne St and 9th St S,1169,549,620,1127,518,609,38.86470077026134,-77.08249592442131,Living,Bus
S Wayne and 9th St,5,5,0,7,7,0,38.864535653500006,-77.0835203715,Entertainment,Bus
Saint Asaph St & Madison St,6154,3087,3067,6659,3540,3119,38.81271247202402,-77.0441043343263,Entertainment,
Saint Asaph St & Pendleton  St,405,228,177,389,173,216,38.810743851514914,-77.04466281924317,Work,Metro
School St & George Mason Blvd,140,44,96,144,41,103,38.83738188306428,-77.30938502091786,Living,Metro
Seatrend Way & Topsails Ln,281,45,236,275,36,239,38.77564504339798,-77.16000995696739,Living,
Shady Grove Hospital,192,75,117,199,79,120,39.09763688631308,-77.19663730829058,Living,
Shady Grove Metro East,1125,779,346,1059,818,241,39.12131753276181,-77.16496483903617,Entertainment,
Shady Grove Metro West,1875,875,1000,1779,807,972,39.119769149796326,-77.16608638535524,Work,
Shirlington Transit Center / Quincy St & Randolph St,897,317,580,962,441,521,38.83991471222644,-77.08708487623787,Living,Metro
Silver Spring Metro / Colesville Rd & Wayne Ave,4972,2706,2266,4366,2330,2036,38.99513580753263,-77.02921738401393,Work,
Silver Spring Transit Center - Top Level,2346,1422,924,1918,1154,764,38.99401390168728,-77.03038095446178,Living,Metro
Sligo Ave & Carroll Ln,2046,753,1293,1877,729,1148,38.990875724916634,-77.01630318269164,Entertainment,
Smithsonian-National Mall / Jefferson Dr & 12th St SW,106640,24061,82579,108841,26007,82834,38.88877660633711,-77.028690561752,Work,Metro
Soapstone Dr Convenience Center,545,127,418,674,128,546,38.93050987881122,-77.34587230978464,Entertainment,Metro
South Capitol & Atlantic St SW,1344,698,646,1358,786,572,38.83151825018741,-77.008136506599,Entertainment,
South Capitol St and Southern Ave SE,526,236,290,564,321,243,38.82158656280798,-77.00119490153074,Living,Bus
South Dakota Ave & 33rd St NE,594,240,354,650,287,363,38.92200808297671,-76.96072067575477,Living,Metro
South Dakota Ave & Bladensburg Rd NE,954,530,424,1008,520,488,38.92518206644497,-76.96488132062527,Work,Metro
South Dakota Ave & Decatur St NE ,276,176,100,307,190,117,38.948307175172104,-76.99181366612561,Living,
South Gate Community Center,524,104,420,552,101,451,38.9414939213434,-77.36650099066128,Work,Metro
South Lakes Dr and Reston Pkwy,494,123,371,386,115,271,38.94335999271775,-77.36230965776815,Living,
South St & University Dr,75,33,42,70,37,33,38.84424958056,-77.30533646564666,Entertainment,Bus
Southern Ave Metro,630,257,373,531,219,312,38.840106841824145,-76.9752988282799,Entertainment,
Spring Hill Metro,1009,326,683,979,314,665,38.92926733907879,-77.24069245156782,Work,Bus
Spring St & 2nd Ave,1189,457,732,955,437,518,38.99761151765527,-77.03449698584669,Entertainment,
St Asaph & Pendleton St,5466,3183,2283,5758,3085,2673,38.81074536520623,-77.04462800485268,Work,Metro
St. Asaph & Montgomery St,160,78,82,215,109,106,38.81418267638082,-77.04380933844476,Entertainment,
St. Elizabeths West Campus/DHS,3205,1769,1436,2723,1918,805,38.85312983344244,-77.00517224457323,,
Stadium Armory Metro,10721,7617,3104,10375,7540,2835,38.885498855182206,-76.9771967662557,Living,
Stanton Square SE,878,524,354,638,413,225,38.85500324303905,-76.98448737010742,Entertainment,Metro
State Theatre / Park Pl & N Washington St,411,198,213,365,192,173,38.882747101758156,-77.1700264381884,Entertainment,
Stewart & April,480,43,437,488,42,446,39.04492837037304,-76.98113281748684,Entertainment,
Stewart Ln & Old Columbia Pike,503,68,435,430,61,369,39.045649035448314,-76.98544093315869,Work,
Sunrise Valley Dr & Roland Clarke Pl,197,21,176,203,19,184,38.94936362622758,-77.35039834588665,Entertainment,Bus
Sunset Hills & Old Reston Ave,1238,139,1099,1229,144,1085,38.955076287296095,-77.35164530794131,Entertainment,Bus
Sunset Hills Rd & Discovery Square,937,636,301,686,500,186,38.95534035787645,-77.35761138848173,Entertainment,Metro
Sunset Hills Rd & Isaac Newton Square,2845,825,2020,2870,879,1991,38.95144243661807,-77.34037360447665,Living,Metro
TJ Cmty Ctr / 2nd St & S Old Glebe Rd,7367,4466,2901,7343,4250,3093,38.86942411499409,-77.09560131624326,Living,Bus
Takoma Metro,18190,10952,7238,16116,10279,5837,38.9752037387005,-77.01685658572727,Work,Metro
Takoma Park Rec Center,893,278,615,1124,344,780,38.98263975481288,-76.98832020498747,Work,Metro
Tanger Outlets,4181,698,3483,3998,695,3303,38.796810633655355,-77.002618658588,Work,Metro
Tanner Park,36201,24816,11385,35868,24945,10923,38.911224901200804,-77.00225826119919,Work,
Temporary Rd & Old Reston Ave,1109,213,896,1085,206,879,38.960082262211834,-77.35341734879955,Work,Metro
Tenleytown / Wisconsin Ave & Albemarle St NW,20540,13579,6961,14859,9574,5285,38.94759132366388,-77.07935898124356,Living,
The Mall at Prince Georges,3864,1506,2358,3772,1666,2106,38.96884612684657,-76.95417558557435,Entertainment,Metro
The Shoppes @ Burnt Mills,472,130,342,692,142,550,39.03136324371741,-77.00412978033174,Living,Metro
Thomas Circle,91424,60726,30698,82595,56331,26264,38.905899919218015,-77.03250579227156,Living,
Thomas Jefferson St NW & Water/K St NW,26819,13096,13723,39222,19444,19778,38.902829237216466,-77.060146647626,Work,Bus
Topsails Ln & Seatrend Way,20,11,9,30,12,18,38.7756461269,-77.16001227562501,Work,
Towers Crescent Dr & Tysons One Pl,448,201,247,458,208,250,38.91523340143581,-77.2201685828908,Entertainment,Metro
Town Center Pkwy & Bowman Towne Dr,758,298,460,810,301,509,38.9625251088077,-77.36190211593801,Work,Bus
Town Center Pkwy & Sunset Hills Rd,1072,319,753,1034,331,703,38.955186448808384,-77.36309043414892,Work,Bus
Traville Gateway Dr & Gudelsky Dr,504,92,412,504,92,412,39.093771942053905,-77.20250151329927,Entertainment,Bus
Trinidad Rec Center,8712,5346,3366,8242,4801,3441,38.906299648309734,-76.98322146215591,Living,Bus
Troy St & 26th St S,2736,901,1835,2784,907,1877,38.84798115617858,-77.07510896094328,Living,Bus
Twinbrook Metro,2027,947,1080,1954,1006,948,39.06203544398385,-77.12077467431197,Work,Metro
Tyco Rd & Boyd Pointe Way,155,81,74,198,93,105,38.93077125546237,-77.24142015355483,Living,
Tysons Corner Station,1280,621,659,1265,664,601,38.920937495406164,-77.2221159239043,Living,Bus
Tysons Metro North,1852,1074,778,1730,999,731,38.92097165674919,-77.22194179766146,Entertainment,Metro
Tysons Metro South,711,274,437,666,251,415,38.91947464541022,-77.22118507542663,Work,
Tysons One Pl & Chain Bridge Rd,738,121,617,705,129,576,38.919479384942534,-77.22118338538507,Entertainment,Metro
Tysons West Transit Center,391,130,261,421,130,291,38.932634942869086,-77.2318245844411,Entertainment,Metro
US Dept of State / Virginia Ave & 21st St NW,16154,11160,4994,16527,11873,4654,38.89490646218554,-77.04658544056943,Living,Bus
USDA / 12th & C St SW,23641,8875,14766,26410,9369,17041,38.88628752242664,-77.02824207220029,Living,Bus
Union Market,36791,21355,15436,39534,22470,17064,38.90791118046789,-76.99707336301307,Entertainment,
United Medical Center,378,130,248,347,135,212,38.83573859071157,-76.98314781053321,Work,
University Dr & Democracy Ln,121,36,85,129,57,72,38.84942402309091,-77.30443383991323,Work,
Utah St & 11th St N,3521,2295,1226,3239,2175,1064,38.88367343965085,-77.11390203202637,Entertainment,Bus
Vaden Dr & Royal Victoria Dr/Jim Scott Cmty Ctr,170,61,109,126,31,95,38.87326097427647,-77.27299954082059,Living,
Vaden Dr & Royal Victoria Dr/Providence Community Center,195,60,135,188,60,128,38.873259882387174,-77.2730055315889,Living,Metro
Valley Ave & Wheeler Rd SE,1329,425,904,1558,486,1072,38.836656906068626,-76.99358816368951,Entertainment,Metro
Van Dorn Metro,521,230,291,656,388,268,38.80009656472194,-77.12995034448471,Entertainment,Metro
Van Ness Metro / UDC,18012,11924,6088,17462,11997,5465,38.94454381799177,-77.06388300269826,Entertainment,Metro
Vantage Hill Rd & Wainwright Dr,187,40,147,164,42,122,38.96669997528225,-77.34849249116681,Entertainment,
Vermont Ave & I St NW,47776,29475,18301,50465,30769,19696,38.90114038825887,-77.03445320418015,Living,Bus
Veterans Pl & Pershing Dr ,2424,1219,1205,2359,1158,1201,38.99745305447087,-77.02390562952722,Living,Metro
Vienna Metro South,822,417,405,785,422,363,38.8774128792348,-77.27075475330838,Work,Bus
Virginia Ave & 25th St NW,33857,21589,12268,36415,23425,12990,38.89879446966177,-77.05340019690018,Entertainment,Metro
Virginia Ave & C St NW,4438,2754,1684,5009,3284,1725,38.89406261024416,-77.04433289836186,Entertainment,
Virginia Hospital Center,1393,788,605,1361,861,500,38.88793976571737,-77.12801394626038,Living,Bus
Virginia Square Metro / Monroe St & 9th St N,19196,11531,7665,16283,10497,5786,38.8827868785818,-77.10315719430443,Work,Metro
Virginia Theological Seminary,737,134,603,648,113,535,38.82014904738891,-77.09390426330273,Entertainment,
Vy Reston Heights,1193,214,979,1140,206,934,38.94902068671467,-77.35514799358384,Entertainment,Bus
W Broad St & Little Falls St,2360,1173,1187,2371,1089,1282,38.883598813899944,-77.17343496185363,Entertainment,Metro
W Columbia St & N Washington St,2410,1651,759,2266,1489,777,38.8856229262622,-77.1669173499468,Entertainment,Bus
W&OD Trail & Explorer St/Reston Bus Station,1077,285,792,1090,290,800,38.957026431110336,-77.35970469548205,Entertainment,Bus
W&OD Trail & Langston Blvd,3154,2222,932,3079,2146,933,38.88714558205274,-77.16211099885227,Entertainment,Metro
W&OD Trail bridge & N Washington St,2,2,0,2,2,0,38.88715,-77.16212,Entertainment,Bus
W&OD Trail/Sunset Hills Rd & Isaac Newton Sq,1449,315,1134,1421,328,1093,38.951433552160765,-77.33990275276798,Living,Metro
W&OD Trail/Sunset Hills Rd & Old Reston Ave,1044,218,826,1034,207,827,38.95506051678831,-77.35145605668885,Work,Metro
WAU / Flower Ave & Division St,4037,2118,1919,4114,2149,1965,38.9866865066122,-77.00004221481115,Entertainment,
Wakefield High School,2895,1441,1454,2500,1256,1244,38.84713790285642,-77.11253966261643,Entertainment,Metro
Walter Reed Dr & 16th St S,41,12,29,29,7,22,38.857803,-77.086733,Entertainment,
Walter Reed Dr & 8th St S,3634,1966,1668,3353,1946,1407,38.86613187006644,-77.08785907990818,Entertainment,
Ward Circle / American University,10464,5511,4953,8608,4745,3863,38.93873206652701,-77.0871450753288,Living,
Washington & Independence Ave SW/HHS,49733,19305,30428,52144,21903,30241,38.88698236840919,-77.01376902881299,Work,Metro
Washington Blvd & 10th St N,11323,6788,4535,8803,5508,3295,38.88473615622354,-77.09348346577103,Living,
Washington Blvd & 7th St N,5030,3005,2025,4398,2665,1733,38.88081420197172,-77.09077227460904,Entertainment,Bus
Washington Blvd & N Frederick St,1477,918,559,1438,905,533,38.884828711243316,-77.12767408289943,Entertainment,Bus
Washington Blvd & Walter Reed Dr ,5991,3562,2429,5970,3569,2401,38.87323624983496,-77.08209986846583,Work,Metro
Washington-Liberty High School / N Stafford St & Generals Way,6432,4251,2181,5795,3928,1867,38.88828516889599,-77.11105943954612,Work,Metro
Waterfront Park,7877,4879,2998,9700,6073,3627,38.8748230601544,-77.02078975429083,Living,
West Falls Church Metro,1656,725,931,1335,730,605,38.90012174411774,-77.18870240650342,Living,Metro
West Hyattsville Metro,9351,3874,5477,9342,3466,5876,38.955327294175575,-76.96807361594011,Living,
Westbranch & Jones Branch Dr,302,120,182,324,138,186,38.93108549632174,-77.22073193125553,Work,Metro
Westbranch Dr & Jones Branch Dr,3,3,0,6,3,3,38.93109445116667,-77.22073178050002,Entertainment,Bus
Westbranch Dr & Maitland St,110,39,71,121,32,89,38.92794950148637,-77.22081887196364,Living,
Western Ave & Pinehurst Cir NW ,322,114,208,336,117,219,38.97573784173913,-77.06640985042185,Entertainment,Bus
Westover Library / Washington Blvd & N McKinley Rd,2159,1279,880,2189,1184,1005,38.886044977857495,-77.14230901526358,Entertainment,
Westpark & Jones Branch Dr,1103,352,751,989,277,712,38.92442119217385,-77.21765620929506,Living,
Westpark & Park Run Dr,815,258,557,757,234,523,38.92891352239839,-77.22536624724015,Entertainment,Metro
Westpark Dr & Leesburg Pike,1176,356,820,1197,371,826,38.9240293308292,-77.23596845176147,Living,Metro
Wheaton Library & Community Rec Center,1086,396,690,1046,362,684,39.04731130469438,-77.05109257284687,Work,Bus
Wheaton Metro / Georgia Ave & Reedie Dr,2730,1292,1438,2474,1219,1255,39.03839379663118,-77.05101293453265,Entertainment,
Wheeler Ave & S. Floyd St.,1314,522,792,1438,514,924,38.80815951156328,-77.1007892427109,Entertainment,Metro
White Flint Metro,981,573,408,719,476,243,39.047522263401596,-77.11286534904161,Entertainment,
White House,660,536,124,653,566,87,38.89554190512496,-77.03791580634532,Entertainment,
White Oak Rec Center,321,70,251,289,73,216,39.04614282699082,-76.97571938384998,Living,
White Oak Transit Center,511,80,431,486,88,398,39.041040011742005,-76.98713028695383,Living,Metro
Whitehaven Pkwy & Foxhall Rd NW / GWU Mt. Vernon,1382,708,674,1238,702,536,38.916502762898816,-77.09089306380355,Work,
Whiting & Lane Dr,604,200,404,569,173,396,38.809743704941695,-77.13582124648812,Work,Metro
Wiehle Ave & Reston Station Blvd,1193,488,705,1176,467,709,38.946608129284215,-77.33939307829483,Entertainment,Metro
Wiehle-Reston Metro South,1299,464,835,1247,471,776,38.94661190807737,-77.33939244975289,Work,Metro
Wilson Blvd & Ft Myer Dr,8524,5571,2953,11480,7408,4072,38.894605797326115,-77.07229098317835,Living,Bus
Wilson Blvd & N Edgewood St,13383,9012,4371,11216,7531,3685,38.889336317477614,-77.09195282301975,Living,Metro
Wilson Blvd & N Franklin Rd,10401,6578,3823,7082,4296,2786,38.89040396127524,-77.08889536735063,Living,
Wilson Blvd & N Illinois St ,4770,3128,1642,4823,3250,1573,38.87652659920926,-77.1271174153143,Entertainment,
Wilson Blvd & N Oak St,14398,9219,5179,14659,9784,4875,38.895083439877084,-77.07381862704257,Entertainment,Bus
Wilson Blvd & N Quincy St,18099,10787,7312,16491,10349,6142,38.880003133173126,-77.1078388079408,Work,Metro
Wilson Blvd & N Quinn St,14570,9553,5017,12747,8547,4200,38.894002154334274,-77.07856796347554,Living,Bus
Wilson Blvd & N Troy St,9606,5910,3696,7355,4303,3052,38.89255447768427,-77.08207915010406,Entertainment,
Wilson Blvd & N Uhle St,12864,9202,3662,8029,6237,1792,38.89170168371419,-77.08459478497562,Work,
Wilson Blvd & N Vermont St,3259,2219,1040,3233,2135,1098,38.87946971535734,-77.1145317277092,Living,Metro
Wilson Blvd. & N. Vermont St.,3847,2315,1532,3505,2091,1414,38.87947701124419,-77.11454577617786,Living,Bus
Windham Ln & Amherst Ave,1432,394,1038,1496,461,1035,39.03199666898359,-77.0473404280909,Living,
Wisconsin Ave & Brandywine St NW,10541,6911,3630,7375,4939,2436,38.94980250676411,-77.0801828781135,Living,Metro
Wisconsin Ave & Ingomar St NW,5938,4030,1908,4489,3021,1468,38.958272420977906,-77.08462823632254,Entertainment,Metro
Wisconsin Ave & Newark St NW,28354,17168,11186,23401,14887,8514,38.9348966600991,-77.07274325735267,Entertainment,
Wisconsin Ave & O St NW,53375,32589,20786,57254,32417,24837,38.90848899368267,-77.06358889656536,Work,
Wisconsin Ave & Rodman St NW,8471,5713,2758,5110,3758,1352,38.939666523089855,-77.07524685515563,Work,
Wisconsin Ave & Upton St NW,2772,1593,1179,2446,1421,1025,38.94179989190206,-77.07641557862662,Living,Bus
Woodglen Dr & Executive Blvd,3126,1174,1952,3097,1343,1754,39.043172085716286,-77.11349314398302,Living,
Woodley Park Metro / Calvert St & Connecticut Ave NW,47071,27730,19341,38240,22811,15429,38.92338739100405,-77.05182428049733,Entertainment,Bus
Woodmont Ave & Strathmore St,10862,5384,5478,9885,5314,4571,38.97986942019928,-77.09351133717476,Entertainment,
Woody Ward Rec Center,191,127,64,207,142,65,38.87957691667976,-76.92660561383683,Living,Metro
Yuma St & Tenley Circle NW,4516,3210,1306,2307,1793,514,38.94617791820268,-77.08055299884828,Entertainment,Metro
